city,state,country,shape,duration (seconds),duration (hours/min),latitude,longitude,date,time
eklutna,ak,us,cigar,180.0,3 minutes.,61.46,-149.36,1936-10-15,17:00:00
atkinson (6 miles north of),il,us,disk,60.0,1 minute,41.42,-90.02,1925-12-28,18:00:00
callicoon,ny,us,oval,1200.0,15-20 min,41.77,-75.06,1998-02-10,21:00:00
londonderry,nh,us,light,45.0,45 sec.,42.86,-71.37,1998-02-10,21:00:00
huntsville,al,us,light,30.0,approx: 30 seconds,34.73,-86.59,1999-02-10,20:15:00
north pole,ak,us,sphere,1200.0,20 minites approx.,64.75,-147.35,1999-02-10,20:40:00
chino,ca,us,cigar,20.0,20 seconds,34.01,-117.69,1999-02-10,23:00:00
san diego (pe&ntilde;asquitos),ca,us,fireball,45.0,45 seconds,32.72,-117.16,1999-02-10,23:40:00
kirkland,wa,us,other,8.0,8 seconds,47.68,-122.21,2000-02-10,04:20:00
alturas (se of),fl,us,fireball,480.0,8 minutes,27.87,-81.72,2000-02-10,19:30:00
toronto (canada),on,ca,triangle,120.0,2:oo min,43.67,-79.42,2000-02-10,21:14:00
seattle,wa,us,circle,5.0,5 sec.,47.61,-122.33,2001-02-10,00:10:00
san diego,ca,us,fireball,600.0,10 minutes,32.72,-117.16,2001-02-10,00:30:00
calgary (canada),ab,ca,oval,37800.0,1 1/2 hours,51.08,-114.08,2001-02-10,18:30:00
abita springs,la,us,triangle,180.0,3 mins,30.48,-90.04,2001-02-10,21:00:00
tell city,in,us,disk,4500.0,1hr15min,37.95,-86.77,2001-02-10,21:00:00
rockford,il,us,formation,2700.0,45 min,42.27,-89.09,2001-02-10,21:50:00
rockford,il,us,formation,900.0,15 minutes,42.27,-89.09,2001-02-10,22:25:00
rockford,il,us,circle,600.0,10 minuts,42.27,-89.09,2001-02-10,22:30:00
rockford,il,us,fireball,180.0,3 minutes,42.27,-89.09,2001-02-10,22:30:00
lancaster,ca,us,disk,10.0,10 seconds,34.7,-118.14,2002-02-10,13:00:00
lancaster,ca,us,disk,10.0,10 seconds,34.7,-118.14,2002-02-10,23:00:00
fort worth,tx,us,fireball,300.0,3 to 5 minutes,32.73,-97.32,2002-02-10,23:59:00
grangeville,id,us,light,300.0,5 minutes,45.93,-116.12,2003-02-10,06:15:00
madras,or,us,sphere,180.0,3 min.,44.63,-121.13,2003-02-10,10:00:00
mexico beach,fl,us,cylinder,120.0,2x3 minutes,29.95,-85.42,2003-02-10,17:00:00
duncan (canada),bc,ca,circle,300.0,5 minutes,48.78,-123.7,2003-02-10,18:00:00
san bernardino,ca,us,other,60.0,1 minute,34.11,-117.29,2004-02-10,01:00:00
mansfield,oh,us,other,3.0,3 seconds,40.76,-82.52,2004-02-10,05:15:00
annapolis,mo,us,sphere,900.0,15 min,37.36,-90.7,2004-02-10,19:00:00
broken arrow,ok,us,chevron,300.0,5 minutes,36.05,-95.79,2004-02-10,21:00:00
pratt,ks,us,circle,900.0,15 minutes,37.64,-98.74,2004-02-10,21:30:00
titonka,ia,us,teardrop,60.0,roughly 45 sec-1 min,43.24,-94.04,2004-02-10,22:30:00
new york,ny,us,disk,1200.0,20min.,40.71,-74.01,2004-02-10,23:45:00
plano,tx,us,cigar,300.0,5 mins.,33.02,-96.7,2005-02-10,00:25:00
charlotte,nc,us,cigar,15.0,15 sec,35.23,-80.84,2005-02-10,15:45:00
new york city,ny,us,light,20.0,20 seconds,40.71,-74.01,2005-02-10,19:50:00
coalville,ia,us,changing,3.0,3 seconds,42.45,-94.13,2005-02-10,20:20:00
reno,nv,us,fireball,5.0,5 seconds,39.53,-119.81,2005-02-10,21:30:00
woodland,ca,us,circle,3600.0,1 hour,38.68,-121.77,2005-02-10,22:00:00
vancouver,wa,us,egg,4200.0,1 hour 10 minutes,45.64,-122.66,2005-02-10,23:20:00
waukesha,wi,us,sphere,10.0,10 sec,43.01,-88.23,2005-02-10,23:55:00
brentwood,tn,us,sphere,120.0,2 min,36.03,-86.78,2006-02-10,14:00:00
seattle,wa,us,cylinder,120.0,2 minutes,47.61,-122.33,2006-02-10,17:30:00
north hudson,ny,us,formation,30.0,less than 30 secs,43.95,-73.73,2006-02-10,19:30:00
cusseta,al,us,light,900.0,10-15 minutes,32.78,-85.31,2006-02-10,20:00:00
morgantown,pa,us,formation,360.0,6min,40.16,-75.89,2006-02-10,21:00:00
south plainfield,nj,us,formation,420.0,4-7 minutes,40.58,-74.41,2006-02-10,23:50:00
lillington,nc,us,circle,120.0,2 min,35.4,-78.82,2007-02-10,00:00:00
boynton beach,fl,us,light,30.0,30seconds,26.52,-80.07,2007-02-10,08:00:00
peoria,il,us,light,1800.0,30 min.,40.69,-89.59,2007-02-10,08:30:00
virginia beach,va,us,sphere,20.0,15-20 seconds,36.85,-75.98,2007-02-10,15:00:00
etobicoke (canada),on,ca,disk,60.0,1 minute,43.7,-79.57,2007-02-10,15:30:00
pittsburgh,pa,us,disk,180.0,2-3 minutes,40.44,-80.0,2007-02-10,17:00:00
nashville,in,us,triangle,600.0,10 minutes,39.21,-86.25,2007-02-10,21:00:00
parkersburg (outside of),wv,us,triangle,120.0,2 mins.,39.27,-81.56,2008-02-10,01:59:00
columbia,tn,us,light,6.0,4-6 seconds,35.62,-87.04,2008-02-10,02:45:00
corona,ca,us,egg,109800.0,31/2hrs,33.88,-117.57,2008-02-10,10:30:00
paris,tx,us,cigar,5.0,approx. 05 sec,33.66,-95.56,2008-02-10,11:00:00
mesa,az,us,disk,180.0,3 min,33.42,-111.82,2009-02-10,10:00:00
crookston,mn,us,circle,15.0,15 seconds,47.77,-96.61,2009-02-10,12:00:00
hollister,nc,us,cigar,600.0,8-10 minutes,36.26,-77.94,2009-02-10,12:00:00
grover beach,ca,us,egg,900.0,15 minutes,35.12,-120.62,2009-02-10,18:00:00
edgar springs,mo,us,light,1200.0,20 min,37.7,-91.87,2009-02-10,18:20:00
carta valley,tx,us,fireball,90.0,90 seconds,29.79,-100.67,2009-02-10,18:37:00
hiawatha,ia,us,other,5.0,3-5 seconds,42.04,-91.68,2009-02-10,18:55:00
corryton,tn,us,triangle,45.0,45 sec,36.15,-83.78,2009-02-10,19:03:00
los angeles,ca,us,oval,2.0,two seconds,34.05,-118.24,2009-02-10,22:00:00
azusa,ca,us,circle,300.0,5 minutes,34.13,-117.91,2009-02-10,23:00:00
eaton rapids,mi,us,other,3.0,3 seconds,42.51,-84.66,2010-02-10,03:00:00
carthage,tn,us,light,10800.0,3 hours,36.25,-85.95,2010-02-10,20:40:00
north caldwell,nj,us,triangle,120.0,2 minutes,40.86,-74.26,2011-02-10,06:00:00
rochester,mn,us,egg,30.0,30 seconds,44.02,-92.47,2011-02-10,07:28:00
grosse pointe woods,mi,us,circle,5.0,about 5 seconds,42.44,-82.91,2011-02-10,13:50:00
round rock,tx,us,oval,20.0,20 seconds,30.51,-97.68,2011-02-10,14:40:00
fresno,ca,us,light,25.0,25 seconds,36.75,-119.77,2011-02-10,16:40:00
nashville,tn,us,sphere,900.0,15 min,36.17,-86.78,2011-02-10,20:00:00
ruidoso,nm,us,light,300.0,5 minutes,33.33,-105.67,2011-02-10,21:00:00
pedro,oh,us,formation,120.0,2 minutes,38.63,-82.67,2011-02-10,21:30:00
jacksonville beach,fl,us,sphere,180.0,3 min.,30.29,-81.39,2011-02-10,22:00:00
bakersfield,ca,us,cylinder,60.0,1 minutes,35.37,-119.02,2011-02-10,22:15:00
laguna beach,ca,us,other,60.0,hours,33.54,-117.78,2011-02-10,23:00:00
west palm beach,fl,us,triangle,120.0,2 minutes,26.71,-80.04,2012-02-10,12:00:00
haines,ak,us,diamond,1800.0,30 minutes and longer,59.24,-135.44,2012-02-10,18:00:00
riverview,fl,us,light,600.0,10 minutes,27.87,-82.33,2012-02-10,18:00:00
san jose,ca,us,light,30.0,30 seconds,37.34,-121.89,2012-02-10,19:00:00
alpine,tx,us,light,300.0,5 mins,30.36,-103.66,2012-02-10,20:00:00
st. petersburg,fl,us,oval,900.0,10-15 minutes,27.77,-82.68,2012-02-10,20:30:00
los banos,ca,us,light,120.0,2 minute,37.06,-120.85,2012-02-10,20:40:00
hayward,ca,us,sphere,300.0,5 minutes,37.67,-122.08,2013-02-10,00:00:00
pacoima,ca,us,circle,600.0,10 minutes,34.26,-118.43,2013-02-10,08:45:00
parkman,oh,us,sphere,420.0,6-7 minutes,41.37,-81.07,2013-02-10,20:00:00
jacksonville,fl,us,oval,2.0,2 seconds,30.33,-81.66,2013-02-10,22:00:00
jupiter,fl,us,fireball,300.0,5 minutes,26.93,-80.09,2013-02-10,22:00:00
franklin,wi,us,rectangle,1800.0,30 minutes,42.89,-88.04,2014-02-10,05:00:00
murrells inlet,sc,us,other,45.0,30-45 seconds,33.55,-79.04,2014-02-10,10:10:00
poughquag,ny,us,diamond,120.0,2 minutes,41.61,-73.68,2014-02-10,18:20:00
wilmington,nc,us,triangle,300.0,5 minutes,34.23,-77.94,2014-02-10,20:30:00
oakville,ct,us,triangle,180.0,3 minutes,41.59,-73.09,2014-02-10,20:35:00
elmhurst,il,us,fireball,300.0,5 minutes,41.9,-87.94,2014-02-10,21:00:00
las vegas,nv,us,fireball,1800.0,30 minutes,36.17,-115.14,2014-02-10,22:30:00
las vegas (north of),nv,us,sphere,120.0,2 minutes,36.17,-115.14,2014-02-10,23:00:00
enterprise,ut,us,oval,15.0,15 seconds,37.57,-113.72,2014-02-10,23:37:00
las vegas,nv,us,circle,2.0,seconds,36.17,-115.14,1983-02-11,00:00:00
chicago,il,us,other,8100.0,2 hours and 15 minutes,41.85,-87.65,1989-02-11,22:00:00
phoenix,az,us,cigar,600.0,10 min.,33.45,-112.07,1997-02-11,11:00:00
burdett,ny,us,other,60.0,1 min.,42.42,-76.85,1998-02-11,22:15:00
castro valley,ca,us,teardrop,30.0,30 seconds,37.69,-122.09,1999-02-11,07:30:00
pittsburg,ca,us,fireball,300.0,5 minutes,38.03,-121.88,1999-02-11,19:20:00
cotati,ca,us,fireball,10.0,10 sec,38.33,-122.71,1999-02-11,19:30:00
rockford,il,us,light,1200.0,20 mins.,42.27,-89.09,2000-02-11,20:15:00
rockford,il,us,formation,900.0,15 minutes,42.27,-89.09,2000-02-11,21:00:00
rockford,il,us,fireball,900.0,10-15 minutes,42.27,-89.09,2000-02-11,21:15:00
houston,tx,us,other,120.0,2 minutes,29.76,-95.36,2000-02-11,22:00:00
kansas city (suburb of),mo,us,triangle,120.0,1 1/2 to 2 min,39.1,-94.58,2001-02-11,08:50:00
gulf breeze,fl,us,oval,300.0,5 minutes,30.36,-87.16,2001-02-11,18:00:00
ballston spa,ny,us,light,3600.0,60 minutes,43.0,-73.85,2001-02-11,20:30:00
chatham,va,us,sphere,120.0,2 minutes,36.83,-79.4,2001-02-11,22:00:00
virginia beach,va,us,diamond,90.0,1-1.5min.,36.85,-75.98,2001-02-11,22:35:00
covina,ca,us,other,1800.0,30 min.,34.09,-117.89,2002-02-11,03:45:00
portland,or,us,disk,30.0,30 seconds,45.52,-122.68,2002-02-11,20:30:00
seattle,wa,us,fireball,1.0,1 second,47.61,-122.33,2002-02-11,22:10:00
milton,wv,us,cylinder,900.0,15 minutes,38.43,-82.13,2002-02-11,23:50:00
merrillville,in,us,other,600.0,10 min,41.48,-87.33,2003-02-11,00:13:00
seattle,wa,us,other,3.0,2-3 seconds,47.61,-122.33,2003-02-11,01:20:00
downers grove,il,us,other,600.0,10 minutes,41.81,-88.01,2003-02-11,15:52:00
victoria (canada),bc,ca,light,600.0,10 min,46.22,-63.48,2003-02-11,19:58:00
boston,ma,us,rectangle,180.0,3 mins,42.36,-71.06,2003-02-11,20:40:00
bishops head,md,us,circle,300.0,5 minutes,38.27,-76.07,2003-02-11,22:05:00
fresno,ca,us,light,300.0,5 minutes,36.75,-119.77,2004-02-11,00:00:00
west palm beach,fl,us,disk,1800.0,20-30 minutes,26.71,-80.04,2004-02-11,00:00:00
linthicum,md,us,cigar,5400.0,90mins,39.2,-76.65,2004-02-11,02:00:00
west roxbury (subtown of boston),ma,us,light,300.0,3-5 minutes,42.32,-71.1,2004-02-11,05:45:00
cathedral city,ca,us,circle,150.0,2.5 minutes,33.78,-116.46,2004-02-11,06:45:00
lyndhurst,oh,us,cigar,10.0,10 seconds,41.52,-81.49,2004-02-11,08:22:00
irvine,ca,us,egg,120.0,2 minutes,33.67,-117.82,2004-02-11,10:15:00
bayonne,nj,us,oval,120.0,2 minutes,40.67,-74.11,2004-02-11,16:00:00
red rock (canada),bc,ca,light,10.0,approx: 10 seconds,48.95,-88.28,2004-02-11,19:27:00
kingman,in,us,fireball,900.0,appx. 15 min.,39.97,-87.28,2004-02-11,19:30:00
peoria,il,us,oval,21600.0,all evening,40.69,-89.59,2004-02-11,20:00:00
wareham,ma,us,light,1200.0,15-20 minutes,41.76,-70.72,2004-02-11,20:00:00
yreka,ca,us,other,15.0,15 seconds,41.74,-122.63,2004-02-11,20:00:00
langley (canada),bc,ca,fireball,300.0,5 mins,49.1,-122.65,2004-02-11,21:32:00
richmond (canada),bc,ca,light,180.0,3 half hours,45.67,-72.15,2004-02-11,23:30:00
shelton,wa,us,sphere,1200.0,20 mins.,47.22,-123.1,2005-02-11,01:00:00
sellersburg,in,us,flash,5.0,5 sec,38.4,-85.76,2005-02-11,02:00:00
peoria,az,us,triangle,5.0,5 seconds,33.58,-112.24,2005-02-11,05:15:00
brunswick,ga,us,sphere,25.0,25sec,31.15,-81.49,2005-02-11,06:28:00
hugo,ok,us,formation,20.0,20 seconds each,34.01,-95.51,2005-02-11,19:30:00
deltona,fl,us,triangle,5400.0,1 hour 30 min,28.9,-81.26,2005-02-11,20:00:00
missoula,mt,us,sphere,1500.0,25+ minutes,46.87,-113.99,2006-02-11,01:00:00
erwinna,pa,us,light,3600.0,1 hour +,40.5,-75.07,2006-02-11,01:40:00
missoula,mt,us,formation,1800.0,30 min.,46.87,-113.99,2006-02-11,02:00:00
austin,tx,us,other,3600.0,1 hour +,30.27,-97.74,2006-02-11,06:50:00
bozeman,mt,us,fireball,15.0,15 sec,45.68,-111.04,2006-02-11,22:00:00
crown point,in,us,light,1200.0,20 mins,41.42,-87.37,2007-02-11,00:20:00
oxnard,ca,us,light,4.0,2-4 seconds,34.2,-119.18,2007-02-11,19:25:00
carroll valley,pa,us,light,30.0,30 seconds,39.75,-77.38,2007-02-11,20:00:00
everett,wa,us,chevron,1500.0,25 min,47.98,-122.2,2007-02-11,22:51:00
whittier,ca,us,light,2400.0,30-40min,33.98,-118.03,2008-02-11,01:00:00
cincinnati,oh,us,oval,4.0,4 seconds,39.16,-84.46,2008-02-11,02:01:00
yorkville,il,us,changing,10800.0,2-3 hours,41.64,-88.45,2008-02-11,04:00:00
burbank,ca,us,sphere,240.0,4 mins,34.18,-118.31,2008-02-11,15:05:00
clinton,nj,us,light,10.0,5-10 secs.,40.64,-74.91,2008-02-11,21:15:00
winsted,ct,us,sphere,5.0,5 seconds,41.92,-73.06,2008-02-11,22:30:00
galena,ks,us,light,5.0,hours,37.08,-94.64,2008-02-11,23:00:00
nebraska city,ne,us,circle,600.0,10 minutes,40.68,-95.86,2008-02-11,23:00:00
essex,nc,us,cigar,30.0,20-30 seconds,36.25,-77.96,2009-02-11,11:00:00
cincinnati,oh,us,cylinder,120.0,<2 minutes,39.16,-84.46,2009-02-11,17:45:00
indianapolis,in,us,triangle,14400.0,4 hours,39.77,-86.16,2009-02-11,19:30:00
wenatchee,wa,us,oval,60.0,1 min,47.42,-120.31,2009-02-11,19:30:00
boulder,co,us,other,420.0,7  minutes,40.02,-105.27,2009-02-11,20:15:00
mountain view,ok,us,light,3600.0,1 hour,35.1,-98.75,2009-02-11,21:00:00
spring hill,tn,us,light,5400.0,90 minutes,35.75,-86.93,2009-02-11,21:00:00
columbus,ga,us,changing,60.0,1 minute,32.46,-84.99,2009-02-11,22:30:00
kelso,wa,us,light,20.0,20 sec,46.15,-122.91,2009-02-11,22:30:00
newark,oh,us,triangle,3.0,3 seconds,40.06,-82.4,2009-02-11,22:40:00
rancho cordova,ca,us,light,960.0,13-16 min.,38.59,-121.3,2009-02-11,23:00:00
weymouth,ma,us,triangle,120.0,2 minutes,42.22,-70.94,2010-02-11,20:35:00
clearwater,fl,us,other,60.0,1 minute,27.97,-82.8,2011-02-11,02:00:00
sacramento,ca,us,sphere,10.0,10 sec,38.58,-121.49,2011-02-11,11:30:00
round rock,tx,us,sphere,300.0,5 minutes,30.51,-97.68,2011-02-11,13:25:00
lakewood,ca,us,circle,180.0,2-3 minutes,33.85,-118.13,2011-02-11,13:43:00
san diego,ca,us,sphere,60.0,1 min,32.72,-117.16,2011-02-11,14:00:00
brea,ca,us,light,3600.0,1 hour,33.92,-117.9,2011-02-11,15:00:00
litchfield park,az,us,circle,180.0,2-3 minutes,33.49,-112.36,2011-02-11,19:00:00
oswego,il,us,light,5.0,5 seconds,41.68,-88.35,2011-02-11,19:00:00
midland,tx,us,sphere,300.0,5 min,32.0,-102.08,2011-02-11,19:15:00
san diego (north coastal area),ca,us,circle,5400.0,1-1.5 hours,32.72,-117.16,2012-02-11,18:00:00
carpentersville,il,us,triangle,60.0,60 sec,42.12,-88.26,2012-02-11,18:15:00
ottawa (canada),on,ca,light,15.0,15 seconds,45.42,-75.7,2012-02-11,18:30:00
fairbanks,ak,us,light,900.0,15 minutes,64.84,-147.72,2012-02-11,19:10:00
jensen beach,fl,us,circle,120.0,2 minutes,27.25,-80.23,2012-02-11,19:30:00
rochester,nh,us,light,900.0,15 minutes,43.3,-70.98,2012-02-11,19:30:00
portsmouth,nh,us,light,600.0,10 minutes,43.07,-70.76,2012-02-11,20:30:00
elkhorn,ne,us,other,2.0,1-2 seconds,41.29,-96.23,2012-02-11,23:10:00
townsend,tn,us,formation,240.0,4 minutes,35.68,-83.76,2013-02-11,02:05:00
hilliards,pa,us,circle,180.0,3 minutes,41.09,-79.83,2013-02-11,09:15:00
napa,ca,us,light,480.0,8 minutes,38.3,-122.28,2013-02-11,20:31:00
metuchen,nj,us,triangle,30.0,20-30 seconds,40.54,-74.36,2013-02-11,22:20:00
simpsonville,sc,us,other,7.0,7 seconds,34.74,-82.25,2013-02-11,23:30:00
biddeford,me,us,circle,2700.0,45 minutes,43.49,-70.45,2014-02-11,03:45:00
deming,nm,us,changing,3600.0,1 hour,32.27,-107.76,2014-02-11,14:00:00
st. louis,mo,us,cigar,180.0,2-3 minutes,38.63,-90.2,2014-02-11,19:12:00
oak ridge,tn,us,chevron,180.0,3 minutes,36.01,-84.27,2014-02-11,19:45:00
ammon,id,us,triangle,10.0,~10 seconds,43.47,-111.97,2014-02-11,20:17:00
victoria (canada),bc,ca,sphere,900.0,15 minutes,46.22,-63.48,2014-02-11,20:30:00
mukwonago,wi,us,sphere,300.0,5 minutes,42.87,-88.33,2014-02-11,21:08:00
plano,tx,us,light,60.0,<1 minute,33.02,-96.7,2014-02-11,22:10:00
evansville,in,us,cylinder,300.0,5 minutes,37.97,-87.56,2014-02-11,22:30:00
nineveh,in,us,triangle,30.0,30 seconds,39.36,-86.08,2014-02-11,23:15:00
cedar city,ut,us,sphere,900.0,15 minutes,37.68,-113.06,2014-02-11,23:45:00
merced,ca,us,sphere,10.0,10 seconds,37.3,-120.48,1946-02-01,17:00:00
st. paul,mn,us,cigar,3.0,3 seconds,44.94,-93.09,1960-02-01,22:15:00
hartwell,ga,us,cigar,45.0,approx 30 to 45 seconds,34.35,-82.93,1960-02-01,23:00:00
randolph,oh,us,oval,10.0,five to ten seconds,41.03,-81.25,1966-02-01,01:00:00
waverly hall,ga,us,circle,3000.0,45-50 minutes,32.68,-84.74,1971-02-01,18:30:00
gorham,nh,us,light,300.0,5 minutes,44.39,-71.17,1971-02-01,19:00:00
honolulu,hi,us,sphere,300.0,5 minutes,21.31,-157.86,1973-02-01,22:00:00
port sulphur,la,us,circle,3.0,3 seconds,29.48,-89.69,1973-02-01,23:00:00
dublin,nh,us,triangle,1200.0,15-20 min,42.91,-72.06,1978-02-01,22:00:00
lake arrowhead,ca,us,circle,180.0,3 min,34.25,-117.19,1979-02-01,02:30:00
portland,or,us,light,900.0,15 mins,45.52,-122.68,1985-02-01,22:30:00
lucas,tx,us,other,120.0,2 minutes,33.08,-96.58,1987-02-01,14:00:00
waldorf,md,us,oval,3600.0,1 hour,38.62,-76.94,1989-02-01,12:00:00
grants pass,or,us,light,600.0,10 min,42.44,-123.33,1992-02-01,20:00:00
doyline,la,us,triangle,180.0,3 minutes,32.54,-93.41,1996-02-01,15:00:00
platteville,wi,us,circle,900.0,15 minutes,42.73,-90.48,1996-02-01,22:30:00
alto,mi,us,triangle,600.0,10 minutes,42.86,-85.38,1997-02-01,06:35:00
winter springs,fl,us,cone,300.0,about 5 min.,28.7,-81.31,1997-02-01,21:00:00
elizabeth,nj,us,sphere,30.0,15-30 sec,40.66,-74.21,1997-02-01,23:00:00
newbury park,ca,us,chevron,600.0,10 min,34.18,-118.91,1998-02-01,01:00:00
east los angeles,ca,us,triangle,300.0,about  5 min.,34.02,-118.17,1998-02-01,15:00:00
flagstaff,az,us,chevron,600.0,5-10 minutes,35.2,-111.65,1999-02-01,00:00:00
lutz,fl,us,flash,2.0,seconds,28.15,-82.46,1999-02-01,18:00:00
molalla,or,us,disk,30.0,20-30 sec,45.15,-122.58,1999-02-01,18:00:00
ocala,fl,us,triangle,1800.0,30min,29.19,-82.14,1999-02-01,21:30:00
arvada,co,us,flash,5.0,5 seconds,39.8,-105.09,1999-02-01,22:05:00
lynn,al,us,triangle,900.0,15 minutes,34.05,-87.55,2000-02-01,02:30:00
cottage grove,or,us,triangle,60.0,1 min,43.8,-123.06,2000-02-01,09:00:00
houston,tx,us,chevron,30.0,30 seconds,29.76,-95.36,2000-02-01,10:00:00
new york city (bronx),ny,us,other,900.0,15min,40.71,-74.01,2000-02-01,20:30:00
babbitt,mn,us,other,600.0,8-10 minutes,47.71,-91.94,2000-02-01,23:00:00
exeter,ca,us,triangle,40.0,30-40 sec.,36.3,-119.14,2001-02-01,03:00:00
bellevue,wa,us,circle,3600.0,1 hour,47.61,-122.2,2001-02-01,05:45:00
salem,nh,us,disk,600.0,ten min.,42.79,-71.2,2001-02-01,16:05:00
bowling green,ky,us,diamond,600.0,10 minutes,36.99,-86.44,2001-02-01,18:00:00
amsterdam,mo,us,formation,900.0,15 minutes,38.35,-94.59,2001-02-01,20:00:00
bowling green,ky,us,fireball,600.0,5-10 minutes,36.99,-86.44,2001-02-01,20:00:00
avila beach (diablo canyon nucular power plant),ca,us,cigar,360.0,6 minutes,35.18,-120.73,2002-02-01,07:00:00
ripon,ca,us,triangle,120.0,2 minutes,37.74,-121.12,2002-02-01,18:00:00
elkton,md,us,light,1800.0,30 minutes,39.61,-75.83,2002-02-01,21:00:00
fitchville,ct,us,oval,60.0,1min,41.56,-72.15,2002-02-01,22:30:00
burbank,ca,us,fireball,10.0,10 secs,34.18,-118.31,2003-02-01,00:35:00
monument,co,us,light,1500.0,25 minutes,39.09,-104.87,2003-02-01,02:00:00
eldridge,ca,us,fireball,120.0,1-2 minutes,38.35,-122.51,2003-02-01,05:45:00
dallas (near??),tx,us,formation,2.0,seconds,32.78,-96.8,2003-02-01,08:00:00
dallas,tx,us,sphere,5.0,5 seconds,32.78,-96.8,2003-02-01,08:00:00
delaware,oh,us,sphere,60.0,60sec,40.3,-83.07,2003-02-01,09:00:00
crown point,in,us,oval,3.0,3 seconds,41.42,-87.37,2003-02-01,09:25:00
santa maria,ca,us,sphere,3.0,3 seconds,34.95,-120.43,2003-02-01,20:50:00
mountain view,ca,us,changing,30.0,30 seconds,37.39,-122.08,2003-02-01,22:30:00
spokane,wa,us,disk,2700.0,45 mins,47.66,-117.42,2003-02-01,22:58:00
spokane,wa,us,disk,1200.0,20 minutes,47.66,-117.42,2003-02-01,23:15:00
birmingham,al,us,chevron,15.0,15 sec,33.52,-86.8,2004-02-01,02:00:00
los angeles,ca,us,triangle,120.0,2 min,34.05,-118.24,2004-02-01,05:06:00
winter park,fl,us,flash,1800.0,30 minutes,28.6,-81.34,2004-02-01,06:30:00
cohutta,ga,us,disk,120.0,several mins,34.96,-84.95,2004-02-01,11:00:00
hawthorne,ca,us,light,660.0,11 minutes,33.92,-118.35,2004-02-01,11:57:00
murfreesboro,tn,us,other,2700.0,45 minutes,35.85,-86.39,2004-02-01,13:30:00
gastonia,nc,us,sphere,30.0,30 seconds,35.26,-81.19,2004-02-01,16:30:00
colebrook,nh,us,light,37800.0,1 1/2 hours,44.89,-71.5,2004-02-01,19:00:00
pinellas park,fl,us,formation,15.0,15 seconds,27.84,-82.7,2005-02-01,03:10:00
adamsville,oh,us,formation,1500.0,25minutes+,40.07,-81.88,2005-02-01,05:30:00
kent,wa,us,sphere,180.0,3 min,47.38,-122.23,2005-02-01,09:25:00
adamsville,oh,us,formation,1500.0,25minutes+,40.07,-81.88,2005-02-01,17:30:00
adamsville,oh,us,formation,900.0,15 min+,40.07,-81.88,2005-02-01,17:40:00
temecula,ca,us,oval,10800.0,3hours,33.49,-117.15,2005-02-01,18:30:00
clarks summit,pa,us,triangle,120.0,2 minutes,41.49,-75.71,2005-02-01,19:00:00
laguna niguel,ca,us,light,3600.0,still there&#44 1/2 an hour,33.52,-117.71,2005-02-01,21:10:00
horn lake,ms,us,triangle,900.0,15 min,34.96,-90.03,2005-02-01,22:00:00
lake elsinore,ca,us,light,300.0,5 minutes,33.67,-117.33,2006-02-01,00:00:00
lunenburg (canada),ns,ca,light,10.0,10 seconds,45.06,-74.91,2007-02-01,01:00:00
calgary (canada),ab,ca,flash,120.0,less than  2 min,51.08,-114.08,2007-02-01,02:00:00
independence,oh,us,triangle,45.0,30-45 secs,41.37,-81.64,2007-02-01,02:00:00
rock hill,sc,us,cigar,20.0,20 secs,34.92,-81.03,2007-02-01,15:00:00
bowdoinham,me,us,triangle,30.0,30 seconds,44.01,-69.9,2007-02-01,18:45:00
los angeles,ca,us,fireball,45.0,45 seconds,34.05,-118.24,2007-02-01,20:25:00
sanford,mi,us,triangle,30.0,30 seconds,43.67,-84.38,2007-02-01,20:45:00
grand rapids,mn,us,fireball,3.0,3 sec,47.24,-93.53,2007-02-01,21:00:00
hastings,mi,us,triangle,600.0,5-10 minutes,42.65,-85.29,2007-02-01,23:00:00
charlotte,nc,us,oval,3.0,3 seconds,35.23,-80.84,2007-02-01,23:30:00
orlando,fl,us,triangle,600.0,approx 10 min,28.54,-81.38,2008-02-01,00:25:00
port neches,tx,us,cigar,300.0,5 minutes,29.99,-93.96,2008-02-01,01:30:00
sanford,fl,us,other,300.0,5minutes,28.8,-81.27,2008-02-01,06:00:00
mesa,az,us,light,1800.0,15-30 minutes,33.42,-111.82,2008-02-01,07:15:00
olympia,wa,us,rectangle,120.0,1-2 minutes,47.04,-122.9,2008-02-01,07:15:00
apache junction,az,us,triangle,120.0,2 minutes,33.42,-111.55,2008-02-01,15:00:00
garden grove,ca,us,light,30.0,30 seconds,33.77,-117.94,2008-02-01,20:00:00
garden grove,ca,us,light,6.0,6 seconds,33.77,-117.94,2008-02-01,21:12:00
eustis,fl,us,changing,360.0,6 minutes,28.85,-81.69,2008-02-01,22:00:00
canton,tx,us,other,1800.0,about 30 minutes,32.56,-95.86,2009-02-01,08:00:00
clearwater,fl,us,egg,60.0,1 minute,27.97,-82.8,2009-02-01,09:45:00
pismo beach,ca,us,cylinder,60.0,1 minute,35.14,-120.64,2009-02-01,10:00:00
tampa,fl,us,oval,5.0,4-5 seconds,27.95,-82.46,2009-02-01,17:50:00
robstown (north of; on ih 37),tx,us,cigar,360.0,6 minutes,27.79,-97.67,2009-02-01,19:00:00
rohnert park,ca,us,sphere,300.0,5 minutes,38.34,-122.7,2009-02-01,19:30:00
oakland,ca,us,light,4.0,3-4 seconds,37.8,-122.27,2009-02-01,19:38:00
berkeley,ca,us,sphere,1500.0,15-25 min?,37.87,-122.27,2009-02-01,20:30:00
frankfort,il,us,teardrop,1800.0,30 mins,41.5,-87.85,2009-02-01,21:00:00
round rock,tx,us,changing,3600.0,1 hour,30.51,-97.68,2009-02-01,21:00:00
sterling,va,us,circle,10.0,5 to 10 seconds,39.01,-77.43,2009-02-01,21:30:00
socorro (west of&#44 on hwy 60),nm,us,rectangle,300.0,5 minutes?,34.06,-106.89,2010-02-01,04:45:00
clovis,ca,us,sphere,180.0,3 min,36.83,-119.7,2010-02-01,06:00:00
ansonia,ct,us,oval,120.0,minute,41.35,-73.08,2010-02-01,07:50:00
marana,az,us,light,180.0,3 mins,32.44,-111.22,2010-02-01,08:30:00
wendell,id,us,light,1200.0,20 minutes,42.78,-114.7,2010-02-01,21:00:00
lake havasu city,az,us,sphere,120.0,1-2 minuets,34.48,-114.32,2011-02-01,09:00:00
nashville,tn,us,oval,28800.0,8 hrs at least,36.17,-86.78,2011-02-01,18:00:00
tucson,az,us,other,25.0,15 -25 seconds,32.22,-110.93,2011-02-01,19:00:00
vancouver,wa,us,formation,20.0,20 seconds,45.64,-122.66,2011-02-01,19:30:00
greenbank,wa,us,light,300.0,5 minutes,48.1,-122.57,2011-02-01,20:00:00
burtonsville,md,us,oval,600.0,10 minutes,39.11,-76.93,2012-02-01,01:30:00
romeoville,il,us,changing,120.0,2 minutes,41.65,-88.09,2012-02-01,02:00:00
brattleboro,vt,us,circle,20.0,20 seconds,42.85,-72.56,2012-02-01,04:45:00
ocala,fl,us,light,120.0,1-2 minutes,29.19,-82.14,2012-02-01,07:30:00
las vegas,nv,us,rectangle,180.0,3 min,36.17,-115.14,2012-02-01,10:42:00
arnold,mo,us,triangle,37800.0,1 1/2 hours,38.43,-90.38,2012-02-01,11:00:00
smackover,ar,us,sphere,300.0,5 minutes,33.36,-92.72,2012-02-01,14:30:00
el paso,tx,us,circle,7200.0,2 hours,31.76,-106.49,2012-02-01,15:00:00
spring grove,va,us,changing,10800.0,3 hours,37.17,-76.97,2012-02-01,17:45:00
groveton,tx,us,circle,30.0,30 seconds,31.05,-95.13,2012-02-01,17:56:00
santa rosa (45 min. e of; hwy. 12),ca,us,teardrop,50.0,50 seconds,38.44,-122.71,2012-02-01,18:23:00
ocala,fl,us,circle,60.0,1 min,29.19,-82.14,2012-02-01,19:30:00
holyoke (6-8 miles southwest of),co,us,oval,60.0,1minute,40.58,-102.3,1931-02-15,14:00:00
westfield (3 mi north of),in,us,formation,30.0,30 seconds,40.04,-86.13,2004-02-03,21:30:00
sultana,ca,us,diamond,2520.0,42minutes,36.55,-119.34,2004-02-03,21:37:00
scottsdale,az,us,disk,1800.0,30min.,33.51,-111.9,2004-02-03,23:00:00
myrtle beach,sc,us,other,15.0,15 seconds,33.69,-78.89,2005-02-03,15:00:00
tucson,az,us,light,1.0,1 sec or less,32.22,-110.93,2005-02-03,19:30:00
port clinton,oh,us,light,2.0,seconds,41.51,-82.94,2007-04-29,21:45:00
lancaster (uk/england).,ms,gb,light,180.0,3 minutes,54.07,-2.83,2007-04-29,22:00:00
kingston (canada),on,ca,other,300.0,5 minutes,44.23,-76.48,2007-04-29,22:15:00
piscataway,nj,us,light,900.0,15 minutes,40.5,-74.4,2007-04-29,23:00:00
warminster,pa,us,triangle,3600.0,1 hour,40.21,-75.1,2007-04-29,23:00:00
metairie,la,us,light,10.0,5-10 seconds,29.98,-90.15,2008-04-29,03:30:00
phelps,ny,us,cigar,30.0,20-30 sec,42.96,-77.06,2008-04-29,14:30:00
gainesville,fl,us,circle,14400.0,4 hrs.,29.65,-82.32,2008-04-29,20:00:00
reno,nv,us,fireball,6.0,6 seconds,39.53,-119.81,2008-04-29,20:00:00
hampton beach,nh,us,formation,2700.0,30-45 minutes,42.91,-70.81,2008-04-29,20:15:00
topanga,ca,us,circle,2700.0,half hour,34.09,-118.6,2008-04-29,21:15:00
buda,tx,us,triangle,6.0,6 seconds,30.08,-97.84,2008-04-29,23:00:00
sterling heights,mi,us,light,30.0,30 seconds,42.58,-83.03,2008-04-29,23:00:00
lakewood,co,us,fireball,60.0,1 min,39.7,-105.08,2008-04-29,23:10:00
scottsdale,az,us,formation,3600.0,1 hour,33.51,-111.9,2008-04-29,23:55:00
tucson,az,us,fireball,3.5,3.5 seconds,32.22,-110.93,2009-04-29,19:20:00
seattle,wa,us,light,2.0,2 seconds,47.61,-122.33,2009-04-29,20:45:00
burlington,vt,us,light,600.0,10 min,44.48,-73.21,2009-04-29,21:00:00
los lunas,nm,us,chevron,2.0,2 seconds,34.81,-106.73,2009-04-29,22:30:00
las vegas,nv,us,chevron,4.0,3-4 seconds,36.17,-115.14,2010-04-29,00:52:00
massapequa,ny,us,light,300.0,5 minutes,40.68,-73.47,2010-04-29,03:00:00
indian mound,tn,us,circle,180.0,3 min.,36.5,-87.69,2010-04-29,20:14:00
cheyenne,wy,us,light,420.0,7 minutes,41.14,-104.82,2010-04-29,20:45:00
hialeah,fl,us,fireball,2.0,1-2 seconds,25.86,-80.28,2011-04-29,03:00:00
san jose,ca,us,circle,300.0,5 mintues,37.34,-121.89,2011-04-29,20:40:00
san jose,ca,us,fireball,600.0,5-10 mins,37.34,-121.89,2011-04-29,20:45:00
midway,ga,us,diamond,240.0,4 min,31.81,-81.43,2011-04-29,20:55:00
marianna,fl,us,fireball,5.0,5 seconds,30.77,-85.23,2011-04-29,21:05:00
alamo,tn,us,formation,600.0,10 minutes,35.78,-89.12,2011-04-29,21:15:00
altamonte springs,fl,us,fireball,7.0,7 seconds,28.66,-81.37,2011-04-29,22:00:00
gainesville,fl,us,rectangle,15.0,15 sec.,29.65,-82.32,2011-04-29,22:05:00
savannah,ga,us,cone,1800.0,30 minutes,32.08,-81.1,2011-04-29,22:15:00
corning,ny,us,light,10800.0,3 hours,42.14,-77.06,2011-04-29,22:30:00
starkville,ms,us,circle,480.0,8 min,33.45,-88.82,2011-04-29,22:35:00
dearborn heights,mi,us,other,7200.0,2 hours,42.34,-83.27,2011-04-29,23:30:00
newark,nj,us,fireball,15.0,15 sec,40.74,-74.17,2012-04-29,01:00:00
jacksonville,fl,us,disk,120.0,2:00,30.33,-81.66,2012-04-29,02:00:00
saratoga springs,ut,us,formation,45.0,45 sec,40.35,-111.9,2012-04-29,17:00:00
cary,nc,us,egg,180.0,3 minutes,35.79,-78.78,2012-04-29,20:15:00
birmingham,al,us,cross,1800.0,20  - 30 min,33.52,-86.8,2012-04-29,21:00:00
hopkinton,ma,us,sphere,1800.0,two and half hours,42.23,-71.52,2012-04-29,21:02:00
farmington,nm,us,sphere,120.0,2 min,36.73,-108.22,2012-04-29,21:05:00
orlando,fl,us,circle,240.0,3-4 minutes,28.54,-81.38,2012-04-29,21:30:00
elmsford,ny,us,fireball,180.0,3 minutes,41.06,-73.82,2012-04-29,22:45:00
webster,nh,us,teardrop,30.0,30 seconds,43.33,-71.72,2012-04-29,23:30:00
melbourne,fl,us,light,240.0,4 minutes,28.08,-80.61,2012-04-29,23:45:00
sunnyvale,ca,us,circle,5.0,5 seconds,37.37,-122.04,2013-04-29,00:50:00
sunnyvale,ca,us,circle,5.0,5 seconds,37.37,-122.04,2013-04-29,00:50:00
st. francis,mn,us,cigar,300.0,5 minutes,45.39,-93.36,2013-04-29,08:00:00
santa fe,nm,us,light,60.0,1 minute,35.69,-105.94,2013-04-29,10:50:00
san antonio,tx,us,fireball,180.0,3 minutes,29.42,-98.49,2013-04-29,19:15:00
davenport,fl,us,fireball,600.0,5-10 minutes,28.16,-81.6,2013-04-29,20:05:00
oxford,ms,us,circle,480.0,8 minutes,34.37,-89.52,2013-04-29,20:15:00
viola,ks,us,cross,300.0,~5 minutes,37.48,-97.64,2013-04-29,22:00:00
kuna,id,us,light,15.0,15 seconds,43.49,-116.42,2013-04-29,22:05:00
crescent city,ca,us,teardrop,7.0,7 seconds,41.76,-124.2,2014-04-29,02:15:00
lysander,ny,us,light,3600.0,1 hour,43.21,-76.46,2014-04-29,05:00:00
west paducah,ky,us,circle,10.0,10 seconds,37.08,-88.6,2014-04-29,18:00:00
stanford,ca,us,circle,1200.0,20 minutes,37.42,-122.16,2014-04-29,20:30:00
coral springs,fl,us,light,600.0,10 minutes,26.27,-80.27,2014-04-29,21:30:00
lawrenceville,ga,us,light,600.0,10 minutes,33.96,-83.99,2014-04-29,21:30:00
coral springs,fl,us,diamond,600.0,10 minutes,26.27,-80.27,2014-04-29,21:40:00
casa grande,az,us,light,3600.0,1 hour,32.88,-111.76,2014-04-29,21:45:00
clovis,nm,us,sphere,600.0,10 minutes,34.4,-103.2,2014-04-29,22:00:00
anderson,sc,us,disk,1800.0,30 minutes,34.5,-82.65,2014-04-29,22:30:00
seneca,sc,us,changing,3600.0,1+ hour,34.69,-82.95,2014-04-29,22:34:00
waterdown (canada),on,ca,fireball,1500.0,25 minutes,43.33,-79.88,2014-04-29,23:30:00
ontario,ca,us,triangle,25.0,25 seconds,34.06,-117.65,2014-04-29,23:59:00
jamison,pa,us,cigar,120.0,several minutes,40.25,-75.09,1953-04-30,16:00:00
sinton,tx,us,oval,60.0,60 seconds,28.04,-97.51,1977-04-30,23:00:00
mcneill,ms,us,cigar,900.0,15 minutes,30.67,-89.64,1988-04-30,22:00:00
lansing,mi,us,circle,900.0,15 minutes,42.73,-84.56,1995-04-30,23:30:00
twelve mile,in,us,disk,360.0,3-6 minutes,40.87,-86.23,1997-04-30,21:00:00
columbia,mo,us,light,20.0,20 seconds,38.95,-92.33,1997-04-30,23:00:00
danville,va,us,teardrop,300.0,5mins,36.59,-79.4,1998-04-30,17:45:00
austin,tx,us,sphere,10.0,10 seconds,30.27,-97.74,1998-04-30,19:00:00
novato,ca,us,fireball,3.0,3 sec.,38.11,-122.57,1999-04-30,01:30:00
findley lake,ny,us,circle,5.0,5 seconds,42.12,-79.73,1999-04-30,14:45:00
south lyon,mi,us,disk,3600.0,1 hour,42.46,-83.65,2000-04-30,00:00:00
franklin,ma,us,diamond,600.0,10 min,42.08,-71.4,2000-04-30,00:12:00
layton,ut,us,triangle,60.0,60 seconds,41.06,-111.97,2000-04-30,22:00:00
corvallis,or,us,disk,30.0,20-30 secs,44.56,-123.26,2000-04-30,22:30:00
portland,or,us,circle,780.0,10-13 minutes,45.52,-122.68,2000-04-30,22:30:00
port washington,wi,us,fireball,60.0,1 minute,43.39,-87.88,2000-04-30,23:41:00
marietta,ga,us,triangle,10.0,10 seconds,33.95,-84.55,2001-04-30,15:47:00
baltimore,md,us,light,1500.0,25 minutes,39.29,-76.61,2001-04-30,20:00:00
panorama city,ca,us,sphere,120.0,2 minutes,34.22,-118.45,2001-04-30,23:59:00
cheyenne,wy,us,egg,300.0,5 minutes,41.14,-104.82,2002-04-30,20:15:00
kelowna (canada),bc,ca,other,60.0,1 minute,49.9,-119.48,2002-04-30,21:45:00
woodinville,wa,us,chevron,5.0,5 seconds,47.75,-122.16,2002-04-30,22:04:00
gaylord,mi,us,other,120.0,2 minutes,45.03,-84.67,2002-04-30,23:15:00
vancouver (canada),bc,ca,triangle,3600.0,1 hour,49.25,-123.13,2003-04-30,02:30:00
beaumont,ca,us,triangle,1800.0,30 minutes,33.93,-116.98,2003-04-30,04:00:00
pottstown,pa,us,cylinder,30.0,30 seconds,40.25,-75.65,2003-04-30,13:20:00
southern pines,nc,us,light,4.0,4 seconds,35.17,-79.39,2003-04-30,20:50:00
terrace (canada),bc,ca,light,2400.0,40 minute event,54.5,-128.58,2003-04-30,21:45:00
port aransas,tx,us,other,240.0,3-4 minutes,27.83,-97.06,2003-04-30,23:37:00
seattle,wa,us,triangle,180.0,3 minutes,47.61,-122.33,2003-04-30,23:41:00
casper,wy,us,cylinder,1800.0,25-30 min,42.87,-106.31,2004-04-30,04:30:00
woodbridge,nj,us,changing,900.0,15 mins,40.56,-74.28,2004-04-30,10:25:00
new york city (manhattan),ny,us,sphere,300.0,5 minutes,40.71,-74.01,2004-04-30,15:00:00
jacksonville,fl,us,chevron,300.0,5 minutes,30.33,-81.66,2004-04-30,16:00:00
seattle,wa,us,cylinder,30.0,30 seconds,47.61,-122.33,2004-04-30,16:45:00
portland,or,us,circle,900.0,10 - 15 minutes,45.52,-122.68,2004-04-30,18:30:00
penngrove,ca,us,sphere,600.0,10 minutes,38.3,-122.67,2004-04-30,19:30:00
gadsden,al,us,cigar,720.0,12 minutes,34.01,-86.01,2004-04-30,21:00:00
belfair,wa,us,oval,5.0,5 seconds,47.45,-122.83,2004-04-30,22:00:00
kirkland,wa,us,chevron,60.0,60 seconds,47.68,-122.21,2004-04-30,22:00:00
new glasgow (canada),ns,ca,other,780.0,13 minutes,45.58,-62.63,2004-04-30,22:10:00
stellarton (canada),ns,ca,other,420.0,approx: 7 minutes,45.57,-62.65,2004-04-30,22:10:00
hernando,fl,us,circle,5.0,5 seconds,28.9,-82.37,2004-04-30,23:00:00
houston,tx,us,flash,1.0,1 sec,29.76,-95.36,2004-04-30,23:15:00
dunstable,ma,us,triangle,300.0,5 minutes,42.68,-71.48,2005-04-30,02:50:00
hayden,id,us,light,15.0,10-15 secs.,47.77,-116.79,2005-04-30,05:00:00
murrieta,ca,us,circle,60.0,1 minute,33.55,-117.21,2005-04-30,21:47:00
tigard,or,us,formation,45.0,45 sec.,45.43,-122.77,2006-04-30,00:05:00
phoenix,az,us,other,15.0,15 seconds,33.45,-112.07,2006-04-30,00:11:00
walla walla,wa,us,circle,600.0,10 minutes,46.06,-118.34,2006-04-30,00:15:00
portland,or,us,diamond,3.0,3 seconds,45.52,-122.68,2006-04-30,00:20:00
sunflower,az,us,other,30.0,30 secs.,33.86,-111.47,2006-04-30,15:30:00
san francisco,ca,us,sphere,10.0,10 sec.,37.78,-122.42,2006-04-30,20:10:00
yakima,wa,us,light,300.0,3-5 min,46.6,-120.5,2006-04-30,21:25:00
orange,tx,us,triangle,7.0,7 seconds,30.09,-93.74,2006-04-30,22:15:00
euless,tx,us,triangle,10.0,10 seconds,32.84,-97.08,2006-04-30,22:25:00
roseville,ca,us,other,5.0,5 seconds,38.75,-121.29,2006-04-30,22:40:00
dana,in,us,triangle,3.0,3 seconds,39.81,-87.5,2006-04-30,23:30:00
jim thorpe,pa,us,cylinder,15.0,15 seconds,40.88,-75.73,2007-04-30,08:00:00
orange park,fl,us,rectangle,300.0,5 mins,30.17,-81.71,2007-04-30,13:00:00
decatur (atlanta suburb),ga,us,sphere,1200.0,15-20 minutes,33.77,-84.3,2007-04-30,19:00:00
millhurst,il,us,disk,1800.0,30 minutes,41.62,-88.55,2007-04-30,20:00:00
seattle,wa,us,formation,5.0,5 seconds,47.61,-122.33,2007-04-30,21:30:00
shreveport,la,us,oval,5.0,hours,32.52,-93.75,2007-04-30,22:00:00
santa fe,nm,us,formation,3120.0,52 mins,35.69,-105.94,2007-04-30,22:03:00
wilson,nc,us,cigar,600.0,10 minutes,35.72,-77.92,2007-04-30,23:00:00
everett,wa,us,cone,12.0,12 seconds,47.98,-122.2,2008-04-30,03:17:00
las vegas,nv,us,changing,600.0,10 min,36.17,-115.14,2008-04-30,08:18:00
south lake tahoe,ca,us,sphere,60.0,1 minute,38.93,-119.98,2008-04-30,15:30:00
trumbull,ct,us,disk,1200.0,20 minutes,41.24,-73.2,2008-04-30,21:00:00
trumbull,ct,us,disk,1200.0,20 minutes,41.24,-73.2,2008-04-30,21:00:00
rayne,la,us,light,15.0,15 sec.,30.23,-92.27,2008-04-30,22:15:00
tucson,az,us,light,3.0,3 seconds,32.22,-110.93,2008-04-30,22:30:00
tallahassee,fl,us,sphere,60.0,1 minute,30.44,-84.28,2008-04-30,23:00:00
el paso,tx,us,light,30.0,30 seconds,31.76,-106.49,2008-04-30,23:45:00
highland,in,us,cigar,240.0,3-4 mins,39.79,-87.4,2009-04-30,15:00:00
college place,wa,us,cigar,1.0,1 second,46.05,-118.39,2009-04-30,21:33:00
galt,ca,us,triangle,600.0,10 min,38.25,-121.3,2009-04-30,21:40:00
tacoma,wa,us,triangle,30.0,30 seconds,47.25,-122.44,2009-04-30,22:45:00
anaheim,ca,us,sphere,300.0,5 min,33.84,-117.91,2009-04-30,23:00:00
houston,tx,us,circle,3.0,2-3 seconds,29.76,-95.36,2009-04-30,23:00:00
somerset,ma,us,sphere,120.0,02  min,41.77,-71.13,2010-04-30,13:32:00
broadview heights,oh,us,circle,120.0,1/2 hours,41.31,-81.69,2010-04-30,20:00:00
erin (canada),on,ca,triangle,180.0,3 min,43.77,-80.07,2010-04-30,21:00:00
lincoln,ne,us,other,20.0,15-20 seconds,40.8,-96.67,2010-04-30,21:00:00
evansville,wy,us,circle,2700.0,45 minutes,42.86,-106.27,2010-04-30,21:30:00
yakima,wa,us,light,180.0,3 min,46.6,-120.5,2011-04-30,00:05:00
owensboro,ky,us,sphere,15.0,10-15 seconds,37.77,-87.11,2011-04-30,02:00:00
santa fe,nm,us,light,15.0,15 seconds,35.69,-105.94,2011-04-30,02:07:00
portland,or,us,other,30.0,30 seconds,45.52,-122.68,2011-04-30,03:05:00
pennellville,ny,us,light,60.0,1 minute,43.28,-76.27,2011-04-30,09:00:00
nashville,tn,us,fireball,600.0,10 minutes,36.17,-86.78,2011-04-30,20:30:00
nashville,tn,us,fireball,60.3,1 min. 30 sec.,36.17,-86.78,2011-04-30,21:00:00
saegertown,pa,us,light,10.0,10 seconds,41.72,-80.15,2011-04-30,22:20:00
nampa,id,us,chevron,300.0,+/- 5 min.,43.54,-116.56,2011-04-30,22:30:00
kenilworth,nj,us,circle,3600.0,aprox 1 hr,40.68,-74.29,2011-04-30,23:00:00
seattle,wa,us,formation,30.0,30 seconds,47.61,-122.33,2011-04-30,23:40:00
fresno,ca,us,triangle,3.0,3 seconds,36.75,-119.77,2012-04-30,21:00:00
st. george,ut,us,circle,300.0,5 minutes,37.1,-113.58,2012-04-30,21:30:00
surprise,az,us,oval,3.0,3sec,33.63,-112.33,2012-04-30,22:15:00
batavia,il,us,circle,45.0,45 seconds,41.85,-88.31,2013-04-30,02:19:00
cambridge,mn,us,triangle,600.0,10 minutes,45.57,-93.22,2013-04-30,09:30:00
culver city,ca,us,cigar,720.0,12 minutes,34.02,-118.4,2013-04-30,20:08:00
smithton,mo,us,triangle,3600.0,60 minutes,38.68,-93.09,2013-04-30,21:40:00
bastrop,tx,us,formation,60.0,<1 minute,30.11,-97.32,2013-04-30,22:00:00
carteret,nj,us,triangle,1200.0,20 minutes,40.58,-74.23,2013-04-30,22:28:00
carteret,nj,us,triangle,120.0,2 minutes,40.58,-74.23,2013-04-30,23:10:00
portland (northeast area),or,us,flash,300.0,5 minutes,45.52,-122.68,2014-04-30,08:30:00
chino hills,ca,us,rectangle,10.0,10 seconds,33.89,-117.73,2014-04-30,17:00:00
ogden,ut,us,changing,3000.0,50 minutes,41.22,-111.97,2014-04-30,21:00:00
tallahassee,fl,us,triangle,300.0,5 minutes,30.44,-84.28,2014-04-30,21:00:00
venice,ca,us,triangle,2.0,2 seconds,33.99,-118.46,2014-04-30,21:03:00
las vegas,nv,us,light,60.0,1 minute,36.17,-115.14,2014-04-30,21:10:00
the dalles,or,us,formation,600.0,10 minutes,45.59,-121.18,2014-04-30,21:50:00
san marcos,ca,us,fireball,2.0,2 seconds,33.14,-117.17,2014-04-30,22:00:00
edmonton (canada),ab,ca,triangle,900.0,15 minutes,53.55,-113.5,2014-04-30,23:45:00
miami,fl,us,other,600.0,5-10 minutes,25.77,-80.19,1964-04-03,18:00:00
gainesville,ga,us,cigar,2.0,seconds,34.3,-83.82,1968-04-03,14:50:00
santa rosa,ca,us,light,1800.0,30 minutes,38.44,-122.71,1971-04-03,20:00:00
port wentworth,ga,us,other,300.0,5 minutes,32.15,-81.16,1997-04-03,01:35:00
seattle,wa,us,other,240.0,2-4min,47.61,-122.33,1997-04-03,17:30:00
kosciusko,ms,us,light,300.0,5 minutes,33.06,-89.59,1997-04-03,21:00:00
phoenix (far west),az,us,oval,300.0,5min,33.45,-112.07,1997-04-03,21:00:00
waldorf,md,us,circle,450.0,7:30,38.62,-76.94,1998-04-03,07:30:00
fredericksburg,va,us,egg,5.0,5 sec.,38.3,-77.46,1998-04-03,18:42:00
fairfax (gmu campus),va,us,oval,10.0,5-10 seconds,38.85,-77.31,1998-04-03,18:45:00
eau claire,wi,us,diamond,15.0,15 sec,44.81,-91.5,1998-04-03,22:20:00
converse,tx,us,light,120.0,2 minutes,29.52,-98.32,1999-04-03,23:16:00
vancouver (canada),bc,ca,light,5400.0,1.5 hours,49.25,-123.13,2001-04-03,02:00:00
corning,ca,us,circle,2400.0,40 minutes,39.93,-122.18,2001-04-03,15:40:00
corning,ca,us,circle,420.0,5-7 minutes,39.93,-122.18,2001-04-03,15:40:00
owasso,ok,us,other,240.0,4 minutes,36.27,-95.85,2001-04-03,19:30:00
granby,ct,us,flash,5.0,5 seconds,41.95,-72.79,2001-04-03,20:05:00
issaquah,wa,us,circle,600.0,8-10 min.,47.53,-122.03,2001-04-03,20:30:00
bigfork,mt,us,light,3.0,2 -3 seconds,48.06,-114.07,2001-04-03,21:00:00
fremont,ca,us,triangle,5.0,5seconds,37.55,-121.99,2002-04-03,20:10:00
sacramento,ca,us,other,2700.0,45 minutes,38.58,-121.49,2002-04-03,21:30:00
dundalk,md,us,other,300.0,5 minutes,39.25,-76.52,2003-04-03,03:10:00
terrace (canada),bc,ca,cross,9.0,approx: 9 seconds,54.5,-128.58,2003-04-03,22:55:00
alcalde,nm,us,disk,3300.0,55 minutes +,36.09,-106.05,2004-04-03,11:45:00
pinellas park,fl,us,changing,300.0,5 minutes,27.84,-82.7,2004-04-03,18:45:00
sonora,ca,us,circle,180.0,3 minutes,37.98,-120.38,2004-04-03,19:15:00
sonora,ca,us,light,180.0,three minutes,37.98,-120.38,2004-04-03,19:15:00
sonora,ca,us,light,180.0,three minutes,37.98,-120.38,2004-04-03,19:15:00
minneapolis,mn,us,triangle,60.0,1 minute,44.98,-93.26,2005-04-03,03:50:00
jacksonville,nc,us,chevron,5.0,5 seconds,34.75,-77.43,2005-04-03,11:30:00
new orleans,la,us,changing,900.0,15 mins,29.95,-90.08,2005-04-03,13:50:00
palm springs,fl,us,cigar,900.0,15 minutes,26.64,-80.1,2005-04-03,16:00:00
ishpeming,mi,us,triangle,600.0,>10 min,46.49,-87.67,2005-04-03,22:29:00
hamilton (canada),on,ca,disk,2.0,seconds,43.25,-79.83,2006-04-03,07:30:00
latonia,ky,us,rectangle,10.0,10 seconds,39.05,-84.51,2006-04-03,12:00:00
winston-salem,nc,us,fireball,120.0,2 mintues,36.1,-80.24,2006-04-03,13:00:00
bowie,tx,us,changing,30.0,30 sec,33.56,-97.85,2006-04-03,13:55:00
verona,pa,us,other,300.0,4-5min,40.51,-79.84,2006-04-03,14:50:00
bremerton,wa,us,sphere,3.0,3 seconds,47.57,-122.63,2006-04-03,17:14:00
tidewater,or,us,fireball,3.0,3 sec,44.41,-123.9,2006-04-03,21:20:00
north bend,or,us,circle,2040.0,34 mins,43.41,-124.22,2006-04-03,21:44:00
richton park,il,us,disk,900.0,15 minutes,41.48,-87.7,2007-04-03,03:00:00
buffalo grove,il,us,disk,900.0,15 min,42.15,-87.96,2007-04-03,12:30:00
north bay (canada),on,ca,egg,600.0,10 minutes,46.3,-79.45,2007-04-03,13:00:00
queen creek,az,us,light,6.0,5 or 6 seconds,33.25,-111.63,2007-04-03,20:00:00
sierra vista,az,us,formation,600.0,10 minutes,31.55,-110.3,2007-04-03,20:17:00
phoenix,az,us,other,1800.0,30 minutes,33.45,-112.07,2007-04-03,22:00:00
kendall,fl,us,light,120.0,2 minutes,25.68,-80.32,2007-04-03,23:02:00
ashburn,va,us,triangle,180.0,3 minutes,39.04,-77.49,2008-04-03,00:00:00
birmingham,al,us,cigar,360.0,5-6 minutes,33.52,-86.8,2008-04-03,07:15:00
wichita falls,tx,us,changing,20.0,20 seconds,33.91,-98.49,2008-04-03,16:22:00
littleton,co,us,other,600.0,10 minutes,39.61,-105.02,2008-04-03,19:30:00
irvine,ca,us,circle,10.0,10 seconds,33.67,-117.82,2008-04-03,21:20:00
rexburg,id,us,cone,300.0,3-5 minutes,43.83,-111.79,2008-04-03,22:45:00
manville,nj,us,other,30.0,30 seconds,40.54,-74.59,2008-04-03,22:48:00
winters,tx,us,other,60.0,< 1 minute,31.96,-99.96,2008-04-03,23:00:00
laguna hills,ca,us,rectangle,120.0,2 minutes,33.61,-117.71,2008-04-03,23:50:00
durham,nc,us,disk,120.0,minutes,35.99,-78.9,2009-04-03,01:00:00
norfolk,ma,us,light,30.0,30 seconds,42.12,-71.33,2009-04-03,13:45:00
catonsville,md,us,sphere,20.0,20 seconds,39.27,-76.73,2009-04-03,14:30:00
leitchfield,ky,us,circle,45.0,45 seconds,37.48,-86.29,2009-04-03,18:00:00
inverness,fl,us,fireball,180.0,3 minutes,28.84,-82.33,2009-04-03,20:30:00
sumrall,ms,us,sphere,4200.0,1 hour&#44 10 min,31.42,-89.54,2009-04-03,20:30:00
saint augustine beach (nearest),fl,us,sphere,60.0,one minute or less,29.85,-81.27,2009-04-03,21:35:00
lubbock,tx,us,triangle,5.0,5 seconds,33.58,-101.85,2010-04-03,01:00:00
milwaukee,wi,us,light,90.0,90 seconds,43.04,-87.91,2010-04-03,05:50:00
monterey,ca,us,egg,10.0,00:10,36.6,-121.89,2010-04-03,11:16:00
punta gorda,fl,us,light,240.0,4 min,26.93,-82.05,2010-04-03,12:00:00
las vegas,nv,us,light,10.0,10 seconds,36.17,-115.14,2010-04-03,20:15:00
wesley chapel,fl,us,other,4.0,3 to 4 sec,28.24,-82.33,2010-04-03,21:00:00
moncton (50.42km before) (canada),nb,ca,other,30.0,30 sec,46.08,-64.77,2010-04-03,21:57:00
muskegon,mi,us,changing,60.0,30-60seconds,43.23,-86.25,2010-04-03,22:00:00
miramichi (canada),nb,ca,triangle,300.0,2-5 min,47.03,-65.18,2010-04-03,23:30:00
kearns,ut,us,triangle,120.0,1 to 2 minutes,40.66,-112.0,2011-04-03,03:30:00
henderson,nv,us,oval,60.0,1 minute,36.04,-114.98,2011-04-03,14:35:00
boulder creek,ca,us,rectangle,30.0,30sec,37.13,-122.12,2011-04-03,22:15:00
phoenix,az,us,formation,2700.0,45+ mins,33.45,-112.07,2011-04-03,22:30:00
san bernardino,ca,us,light,900.0,15 minutes,34.11,-117.29,2011-04-03,23:45:00
anacortes,wa,us,fireball,2.0,2 seconds,48.51,-122.61,2012-04-03,10:30:00
worth,il,us,other,120.0,2 min,41.69,-87.8,2012-04-03,17:00:00
fullerton,ca,us,sphere,2.0,2 sec,33.87,-117.92,2012-04-03,18:17:00
columbus,oh,us,cylinder,600.0,10 min,39.96,-83.0,2012-04-03,19:15:00
mannington,wv,us,oval,60.0,1 minute,39.53,-80.34,2012-04-03,20:50:00
philippi,wv,us,teardrop,170.0,0:2:50,39.15,-80.04,2012-04-03,21:45:00
beaverton,or,us,oval,2400.0,over 40 minutes,45.49,-122.8,2012-04-03,21:50:00
connersville,in,us,rectangle,15.0,15 seconds,39.64,-85.14,2012-04-03,23:00:00
clinton,ct,us,disk,720.0,12 minutes,41.28,-72.53,2012-04-03,23:15:00
new baltimore,mi,us,triangle,420.0,7 minutes,42.68,-82.74,2013-04-03,05:30:00
northampton,ma,us,triangle,180.0,3 minute,42.32,-72.64,2013-04-03,12:30:00
medford,ma,us,disk,10.0,7-10 seconds,42.42,-71.11,2013-04-03,16:10:00
ridgecrest,ca,us,sphere,300.0,5 minutes,35.62,-117.67,2013-04-03,21:35:00
centerville,oh,us,circle,20.0,15-20 seconds,39.63,-84.16,2013-04-03,23:00:00
lancaster,ny,us,sphere,1800.0,2-2:30,42.9,-78.67,2013-04-03,23:15:00
palm desert,ca,us,disk,180.0,2-3 minutes,33.72,-116.37,2014-04-03,12:00:00
muscle shoals,al,us,cylinder,120.0,2 minutes,34.74,-87.67,2014-04-03,14:00:00
surprise,az,us,light,600.0,10 minutes,33.63,-112.33,2014-04-03,14:00:00
franklin,wi,us,other,45.0,30-45 seconds,42.89,-88.04,2014-04-03,20:00:00
phoenix,az,us,light,240.0,2-4 minutes,33.45,-112.07,2014-04-03,20:00:00
wellington,fl,us,disk,1200.0,20 minutes,26.66,-80.24,2014-04-03,20:05:00
billings,mt,us,light,60.0,1 minute,45.78,-108.5,2014-04-03,20:20:00
dubuque,ia,us,circle,120.0,2 minutes,42.5,-90.66,2014-04-03,20:28:00
clovis,nm,us,changing,60.0,1 minute,34.4,-103.2,2014-04-03,21:00:00
revere,ma,us,formation,30.0,30 seconds,42.41,-71.01,2014-04-03,21:00:00
falls church,va,us,triangle,120.0,2 minutes,38.88,-77.17,2014-04-03,23:00:00
little rock,ar,us,cylinder,180.0,3 minutes,34.75,-92.29,1968-04-04,10:00:00
natick,ma,us,sphere,480.0,8 minutes,42.28,-71.35,1978-04-04,21:00:00
natick,ma,us,sphere,900.0,15 minutes,42.28,-71.35,1978-04-04,21:15:00
natick,ma,us,sphere,600.0,10 minutes,42.28,-71.35,1978-04-04,22:00:00
dallas,tx,us,light,5.0,5 seconds,32.78,-96.8,1979-04-04,06:00:00
stone ridge,ny,us,other,1500.0,25 minutes,41.85,-74.14,1985-04-04,20:00:00
chicago,il,us,disk,300.0,5 minutes,41.85,-87.65,1985-04-04,23:00:00
akron,oh,us,light,30.0,30 seconds,41.08,-81.52,1988-04-04,23:30:00
milwaukee,wi,us,triangle,300.0,5 mins,43.04,-87.91,1993-04-04,19:00:00
hollywood,fl,us,circle,7200.0,2 hrs,26.01,-80.15,1994-04-04,17:00:00
williamsburg,va,us,sphere,1500.0,25 minutes,37.27,-76.71,1995-04-04,04:00:00
regina (canada),sk,ca,fireball,6.0,1 and a half hours,50.45,-104.62,1997-04-04,01:00:00
atlanta,ga,us,sphere,240.0,4 minutes,33.75,-84.39,1997-04-04,02:15:00
cheyenne,wy,us,sphere,10.0,10 seconds,41.14,-104.82,1998-04-04,09:00:00
gardiner,me,us,circle,600.0,6-10 minutes,44.23,-69.78,1998-04-04,23:30:00
liberty,mo,us,disk,600.0,10minutes,39.25,-94.42,1999-04-04,22:00:00
la mirada,ca,us,fireball,1200.0,20 mins,33.92,-118.01,1999-04-04,22:20:00
fort wayne,in,us,oval,300.0,~5 minutes,41.13,-85.13,2000-04-04,02:00:00
clearwater,fl,us,other,25.0,25 sec.,27.97,-82.8,2000-04-04,16:30:00
bouse,az,us,light,5.0,5 secs each,33.93,-114.0,2000-04-04,21:05:00
eden prairie,mn,us,circle,180.0,3 minutes,44.85,-93.47,2001-04-04,16:00:00
sedona,az,us,other,10.0,10 seconds,34.87,-111.76,2001-04-04,19:00:00
charlottesville,va,us,other,180.0,3 minutes,38.03,-78.48,2001-04-04,20:30:00
acme,pa,us,diamond,8.0,8 seconds,40.13,-79.43,2001-04-04,21:30:00
saskatoon (canada),sa,ca,disk,3000.0,50 minutes,52.13,-106.67,2001-04-04,23:20:00
westville,in,us,diamond,30.0,30 seconds,41.54,-86.9,2001-04-04,23:30:00
franklin,pa,us,disk,1200.0,20 minutes,41.4,-79.83,2001-04-04,23:47:00
marianna,fl,us,other,60.0,1 min&#44 +or -,30.77,-85.23,2002-04-04,15:30:00
sinking spring,pa,us,light,2700.0,45 minutes,40.33,-76.01,2002-04-04,19:15:00
laramie,wy,us,changing,30.0,30 seconds,41.31,-105.59,2002-04-04,19:45:00
jacksonville,fl,us,circle,20.0,20 seconds or less,30.33,-81.66,2003-04-04,06:00:00
white bear lake,mn,us,disk,600.0,10min,45.08,-93.01,2003-04-04,14:00:00
aloha,or,us,sphere,2.0,2 seconds,45.49,-122.87,2003-04-04,18:35:00
london (just west of) (canada),on,ca,sphere,10.0,5-10 seconds,42.98,-81.25,2003-04-04,20:00:00
concord,ca,us,fireball,300.0,3-5 minutes,37.98,-122.03,2003-04-04,21:30:00
concord,ca,us,circle,600.0,10 min.,37.98,-122.03,2003-04-04,22:00:00
coral springs,fl,us,triangle,60.0,60 seconds,26.27,-80.27,2003-04-04,23:38:00
new westminster (canada),bc,ca,other,2.0,approx. 2 seconds,49.22,-122.92,2004-04-04,00:00:00
antioch,ca,us,other,27.0,27sec,38.01,-121.8,2004-04-04,01:00:00
champaign,il,us,triangle,6.0,6 seconds,40.12,-88.24,2004-04-04,01:00:00
alexandria,va,us,light,20.0,20 seconds,38.8,-77.05,2004-04-04,03:38:00
lakeland,fl,us,oval,60.0,1 minute,28.04,-81.95,2004-04-04,13:00:00
las vegas,nv,us,other,600.0,10 minutes,36.17,-115.14,2004-04-04,15:45:00
greensboro,nc,us,light,30.0,30 seconds,36.07,-79.79,2004-04-04,21:00:00
wenatchee,wa,us,light,30.0,30 seconds,47.42,-120.31,2004-04-04,21:25:00
calgary (canada),ab,ca,light,6.0,6 seconds,51.08,-114.08,2004-04-04,22:00:00
south bend,in,us,sphere,15.0,10-15 seconds,41.68,-86.25,2004-04-04,22:00:00
port ludlow,wa,us,fireball,3.0,2-3 seconds,47.93,-122.68,2004-04-04,23:00:00
mocksville,nc,us,light,240.0,4 minutes,35.89,-80.56,2004-04-04,23:20:00
new westminster (canada),bc,ca,other,2.0,1-2 sec,49.22,-122.92,2004-04-04,23:59:00
wentzville,mo,us,fireball,4.0,3-4 seconds,38.81,-90.85,2005-04-04,03:00:00
nashville,tn,us,light,3.0,3 seconds,36.17,-86.78,2005-04-04,04:00:00
morehead city,nc,us,triangle,10.0,10 seconds,34.72,-76.73,2005-04-04,21:50:00
dayville,ct,us,other,900.0,15 minutes,41.85,-71.89,2005-04-04,22:45:00
loganville,ga,us,light,5.0,5 seconds,33.84,-83.9,2006-04-04,01:44:00
frazier park,ca,us,circle,60.0,1:00 minute,34.82,-118.94,2006-04-04,02:00:00
colorado springs,co,us,circle,3600.0,1 hour,38.83,-104.82,2006-04-04,02:30:00
akron,oh,us,fireball,240.0,4 min,41.08,-81.52,2006-04-04,03:50:00
vancouver (canada),bc,ca,triangle,7200.0,2 hrs,49.25,-123.13,2006-04-04,20:23:00
richmond (canada),bc,ca,triangle,6.0,6 seconds,45.67,-72.15,2006-04-04,21:22:00
milton (canada),on,ca,sphere,3.0,3 sec,46.3,-63.22,2006-04-04,22:30:00
rossville,il,us,light,6.5,6.5 seconds,40.38,-87.67,2006-04-04,23:40:00
palo alto,ca,us,sphere,3.0,3 seconds,37.44,-122.14,2007-04-04,06:05:00
clearlake,ca,us,light,120.0,2min,38.96,-122.63,2007-04-04,06:45:00
princeton,wv,us,circle,2.0,2 sec,37.37,-81.1,2007-04-04,10:00:00
omaha,ne,us,flash,60.0,1 minute,41.26,-95.94,2007-04-04,16:53:00
spring valley,ca,us,fireball,300.0,5:00,32.74,-117.0,2007-04-04,20:00:00
queen creek,az,us,light,60.0,1 minute,33.25,-111.63,2007-04-04,20:55:00
lehigh acres,fl,us,disk,1800.0,30 min,26.62,-81.62,2007-04-04,22:00:00
centralia,mo,us,sphere,360.0,4-6 minutes,39.21,-92.14,2007-04-04,22:35:00
sanger,ca,us,circle,6.0,6 seconds,36.71,-119.56,2008-04-04,02:15:00
lake havasu city,az,us,other,300.0,5 minutes,34.48,-114.32,2008-04-04,15:00:00
los angeles,ca,us,cigar,1200.0,20 minutes,34.05,-118.24,2008-04-04,20:45:00
carriere,ms,us,light,7200.0,2 hours,30.62,-89.65,2008-04-04,21:00:00
durand,mi,us,light,2700.0,45min,42.91,-83.98,2008-04-04,21:30:00
wichita,ks,us,triangle,900.0,15 minutes,37.69,-97.34,2008-04-04,22:00:00
gainesville,fl,us,triangle,2.0,a few seconds,29.65,-82.32,2008-04-04,22:14:00
pekin,il,us,triangle,30.0,less than 30 sec.,40.57,-89.64,2008-04-04,22:25:00
marietta,ga,us,sphere,300.0,five minuets,33.95,-84.55,2009-04-04,12:20:00
bristol,ct,us,cigar,180.0,3 minutes,41.67,-72.95,2009-04-04,15:20:00
east berlin,pa,us,oval,120.0,2 min,39.94,-76.98,2009-04-04,18:06:00
st. augustine,fl,us,light,300.0,5 minutes,29.89,-81.31,2009-04-04,20:00:00
flagstaff,az,us,light,600.0,ten minutes,35.2,-111.65,2009-04-04,21:00:00
lawrenceville,ga,us,sphere,10.0,10 seconds,33.96,-83.99,2009-04-04,21:20:00
cincinnati,oh,us,light,300.0,5 min,39.16,-84.46,2009-04-04,22:05:00
oceanside,ca,us,light,60.1,1 min. 10 secs.,33.2,-117.38,2009-04-04,22:30:00
horsham,pa,us,triangle,30.0,30 seconds,40.18,-75.13,2009-04-04,23:00:00
santa rosa,ca,us,light,120.0,1 1/2 minute,38.44,-122.71,2009-04-04,23:45:00
webster,mn,us,light,10.0,10 seconds,44.53,-93.35,2009-04-04,23:59:00
modesto,ca,us,light,10.0,hour,37.64,-121.0,2010-04-04,00:00:00
haddam,ct,us,cigar,300.0,5 minutes,41.48,-72.51,2010-04-04,16:00:00
venice,ca,us,other,900.0,15.min,33.99,-118.46,2011-04-04,03:00:00
wasilla,ak,us,circle,300.0,1-5 minutes,61.58,-149.44,2011-04-04,04:00:00
orange,ca,us,light,300.0,5 min,33.79,-117.85,2011-04-04,06:00:00
las vegas,nv,us,oval,2700.0,45 min,36.17,-115.14,2011-04-04,08:30:00
lipan (sw of),tx,us,other,20.0,20 seconds,32.52,-98.05,2011-04-04,20:32:00
carson city,nv,us,triangle,10.0,10 seconds,39.16,-119.77,2011-04-04,22:30:00
danville,vt,us,light,120.0,1-2 minutes,44.41,-72.14,2012-04-04,01:00:00
orlando,fl,us,changing,180.0,3 minutes,28.54,-81.38,2012-04-04,16:21:00
albuquerque,nm,us,disk,360.0,6 minutes,35.08,-106.65,2012-04-04,17:38:00
perryville,mo,us,sphere,2700.0,30-45 minutes,37.72,-89.86,2012-04-04,22:15:00
concord,nc,us,light,1800.0,30 minutes,35.41,-80.58,2012-04-04,23:00:00
norwalk,oh,us,disk,300.0,5 minutes,41.24,-82.62,2012-04-04,23:00:00
seattle,wa,us,sphere,120.0,2 minutes,47.61,-122.33,2013-04-04,00:30:00
cherryvale,ks,us,formation,1800.0,~30 minutes,37.27,-95.55,2013-04-04,13:00:00
red wing,mn,us,triangle,180.0,3 minutes,44.56,-92.53,2013-04-04,21:04:00
indianapolis,in,us,disk,30.0,30 seconds,39.77,-86.16,2013-04-04,21:12:00
oceanside,ca,us,light,1200.0,20 minutes,33.2,-117.38,2013-04-04,21:55:00
perryville,ky,us,changing,600.0,10 minutes,37.65,-84.95,2014-04-04,00:30:00
vero beach,fl,us,circle,300.0,5+ minutes,27.64,-80.4,2014-04-04,10:53:00
jefferson,me,us,cross,1800.0,~30 minutes,44.21,-69.45,2014-04-04,14:15:00
jefferson,me,us,other,1200.0,20 minutes,44.21,-69.45,2014-04-04,14:30:00
san diego,ca,us,other,60.0,1 minute,32.72,-117.16,2014-04-04,16:32:00
jacksonville,fl,us,oval,20.0,20 seconds,30.33,-81.66,2014-04-04,17:35:00
riverside,ca,us,disk,120.0,2 minutes,33.95,-117.4,2014-04-04,20:10:00
panama city,fl,us,light,90.0,1:30,30.16,-85.66,2014-04-04,20:31:00
lakeland,fl,us,fireball,180.0,3 minutes,28.04,-81.95,2014-04-04,21:00:00
calgary (canada),ab,ca,other,120.0,~2 minutes,51.08,-114.08,2014-04-04,21:40:00
frederick,md,us,light,300.0,5 minutes,39.41,-77.41,2014-04-04,22:15:00
westland,mi,us,disk,180.0,2-3 min,42.32,-83.4,1968-04-05,23:00:00
orlando,fl,us,disk,120.0,2 minutes,28.54,-81.38,1971-04-05,18:00:00
talladega,al,us,disk,300.0,5 minutes,33.44,-86.11,1971-04-05,19:00:00
houston,tx,us,disk,30.0,30 seconds,29.76,-95.36,1973-04-05,21:30:00
waikiki,hi,us,disk,30.0,30 seconds,21.28,-157.83,1983-04-05,20:00:00
arlington,tx,us,triangle,300.0,4-5 minutes,32.74,-97.11,1984-04-05,21:30:00
mesa,az,us,disk,300.0,5 min,33.42,-111.82,1995-04-05,12:01:00
redding,ca,us,disk,60.0,1 min.,40.59,-122.39,1996-04-05,12:00:00
san diego,ca,us,formation,60.0,60 seconds,32.72,-117.16,1996-04-05,21:00:00
arlington,wa,us,disk,300.0,5 min,48.2,-122.12,1996-04-05,23:30:00
fairhope,al,us,circle,60.0,1 minute,30.52,-87.9,1997-04-05,14:00:00
fairhope,al,us,other,30.0,30 seconds,30.52,-87.9,1997-04-05,14:00:00
randle (near),wa,us,light,45.0,45 seconds,46.54,-121.96,1997-04-05,19:50:00
winslow,me,us,light,300.0,5 minutes,44.55,-69.62,1998-04-05,01:00:00
baraboo,wi,us,light,2.0,a few seconds,43.47,-89.74,1998-04-05,08:10:00
soquel,ca,us,other,80.0,1 min 20sec,36.99,-121.96,1998-04-05,11:50:00
channahon (near joliet),il,us,triangle,180.0,2-3 minutes,41.43,-88.23,1998-04-05,23:35:00
pullman,wa,us,light,180.0,3 minutes,46.73,-117.18,1999-04-05,08:20:00
montreal (canada),pq,ca,circle,120.0,2 min,45.5,-73.58,1999-04-05,14:10:00
huntsville,al,us,cigar,900.0,15 min,34.73,-86.59,1999-04-05,15:00:00
mineola,tx,us,circle,600.0,10min,32.66,-95.49,1999-04-05,21:10:00
baltimore,md,us,fireball,3.0,3 seconds,39.29,-76.61,1999-04-05,21:40:00
lettsworth,la,us,light,120.0,2 minutes,30.93,-91.7,1999-04-05,22:45:00
liberty,mo,us,triangle,600.0,10 minutes,39.25,-94.42,1999-04-05,23:15:00
hazelwood,mo,us,cylinder,600.0,10 min,38.77,-90.37,2000-04-05,18:30:00
ocean city,md,us,disk,240.0,4 minutes,38.34,-75.09,2000-04-05,22:00:00
rancho bernardo,ca,us,light,300.0,4-5 minutes,33.02,-117.06,2001-04-05,01:05:00
miller place,ny,us,disk,120.0,1 1/2 min.,40.96,-73.0,2001-04-05,04:30:00
wildwood crest,nj,us,other,300.0,5 minutes,38.97,-74.83,2001-04-05,11:45:00
florissant (st. louis),mo,us,triangle,180.0,3min,38.79,-90.32,2001-04-05,21:56:00
new york city (brooklyn),ny,us,light,15.0,about 15  sec,40.71,-74.01,2002-04-05,05:00:00
depew,ny,us,triangle,240.0,4minutes,42.9,-78.69,2002-04-05,19:00:00
los alamos,ca,us,cigar,60.0,60seconds,34.74,-120.28,2003-04-05,12:00:00
los alamos,ca,us,cigar,60.0,1 minute,34.74,-120.28,2003-04-05,12:15:00
eureka,ca,us,disk,1800.0,approx 30 min,40.8,-124.16,2003-04-05,18:12:00
fresno,ca,us,chevron,180.0,3min,36.75,-119.77,2003-04-05,19:00:00
albuquerque,nm,us,chevron,900.0,15 minutes,35.08,-106.65,2003-04-05,22:30:00
silverdale,wa,us,teardrop,12.0,12 sec.,47.64,-122.69,2004-04-05,00:47:00
troy,mi,us,other,300.0,5min,42.61,-83.15,2004-04-05,06:30:00
troy,mi,us,other,300.0,5min,42.61,-83.15,2004-04-05,07:00:00
newport,tn,us,other,40.0,30 to 40 sec.,35.97,-83.19,2004-04-05,11:00:00
enfield,ct,us,triangle,300.0,5 min,41.98,-72.59,2004-04-05,20:00:00
warrenton,nc,us,changing,120.0,2min,36.4,-78.16,2004-04-05,20:00:00
yuma,az,us,triangle,60.0,45 seconds to 1 minute,32.73,-114.62,2004-04-05,21:10:00
leeds,al,us,light,6.0,6 sec,33.55,-86.54,2004-04-05,23:30:00
klamath falls,or,us,other,360.0,6 minutes,42.22,-121.78,2005-04-05,16:20:00
east otis,ma,us,cigar,10.0,10 sec,42.17,-73.04,2005-04-05,21:00:00
phelan,ca,us,changing,1500.0,25 minutes,34.43,-117.57,2005-04-05,21:00:00
toronto (canada),on,ca,formation,900.0,15m,43.67,-79.42,2005-04-05,22:20:00
gainesville,fl,us,rectangle,300.0,5 minutes,29.65,-82.32,2006-04-05,01:00:00
erie,pa,us,disk,90.0,60-90 seconds,42.13,-80.09,2006-04-05,03:00:00
erie,pa,us,disk,60.0,45-60 seconds,42.13,-80.09,2006-04-05,03:15:00
newhall,ca,us,circle,5.0,5 seconds,34.38,-118.53,2006-04-05,06:05:00
shingletown,ca,us,disk,60.0,1 minute,40.49,-121.89,2006-04-05,08:31:00
silverdale,wa,us,sphere,60.0,less than 1 min.,47.64,-122.69,2006-04-05,16:46:00
fairview heights,il,us,sphere,5.0,5 seconds,38.59,-89.99,2006-04-05,18:00:00
palatka,fl,us,disk,120.0,2:00,29.65,-81.64,2006-04-05,20:00:00
centralia,wa,us,fireball,5.0,5 secs,46.72,-122.95,2006-04-05,20:15:00
des moines,wa,us,fireball,2.0,2 secs,47.4,-122.32,2006-04-05,20:30:00
graham,wa,us,disk,1800.0,30 minutes&#44 and counting,47.05,-122.29,2006-04-05,22:15:00
oklahoma city,ok,us,circle,600.0,10 minutes,35.47,-97.52,2006-04-05,22:25:00
san marcos,tx,us,triangle,120.0,2 min,29.88,-97.94,2006-04-05,22:25:00
san antonio,tx,us,other,25.0,25 seconds,29.42,-98.49,2007-04-05,14:56:00
huntsville,al,us,triangle,420.0,7 minutes,34.73,-86.59,2007-04-05,19:00:00
richmond,va,us,cigar,6.0,6 sce,37.55,-77.46,2007-04-05,21:00:00
bel air,md,us,egg,2400.0,40 mins,39.54,-76.35,2007-04-05,21:30:00
brewster,ma,us,flash,1800.0,30 minutes,41.76,-70.08,2007-04-05,21:30:00
shelton,wa,us,light,2.0,a few seconds,47.22,-123.1,2007-04-05,23:00:00
green bay,wi,us,triangle,6.0,6 seconds,44.52,-88.02,2008-04-05,01:15:00
long branch,nj,us,light,120.0,2 minutes,40.3,-73.99,2008-04-05,17:30:00
gibsonton,fl,us,triangle,120.0,2 minutes,27.85,-82.38,2008-04-05,23:45:00
clarksville,md,us,cigar,300.0,5 minutes,39.21,-76.94,2009-04-05,02:45:00
paw paw (near),wv,us,oval,25.0,20-25 seconds,39.53,-78.46,2009-04-05,04:30:00
cedar park,tx,us,disk,20.0,20 seconds,30.5,-97.82,2009-04-05,16:20:00
wilmington,ca,us,sphere,600.0,10 minutes,33.78,-118.26,2009-04-05,17:00:00
monmouth beach,nj,us,light,3600.0,1 hour,40.33,-73.98,2009-04-05,20:00:00
des moines,wa,us,oval,300.0,5minutes,47.4,-122.32,2009-04-05,21:00:00
champaign,il,us,triangle,7.0,7 seconds,40.12,-88.24,2009-04-05,22:08:00
lexington,oh,us,disk,300.0,4 or 5 mins,40.68,-82.58,2010-04-05,00:00:00
lynn,ma,us,circle,30.0,30 seconds,42.47,-70.95,2010-04-05,18:45:00
marshfield,ma,us,sphere,180.0,half hour,42.09,-70.71,2010-04-05,22:00:00
scott,ar,us,light,480.0,5-8 minutes,34.7,-92.1,2010-04-05,22:10:00
wilmington,nc,us,oval,7200.0,2 hours,34.23,-77.94,2010-04-05,23:00:00
springfield,mo,us,sphere,7.0,7 seconds,37.22,-93.3,2010-04-05,23:10:00
terre haute,in,us,light,20.0,15-20 seconds,39.47,-87.41,2010-04-05,23:55:00
west covina,ca,us,sphere,720.0,12 minutes,34.09,-117.89,2011-04-05,11:30:00
simi valley,ca,us,diamond,300.0,5 min,34.27,-118.78,2011-04-05,18:25:00
new castle,pa,us,other,30.0,30 seconds,41.0,-80.35,2011-04-05,20:35:00
lowry city,mo,us,light,9.0,9 seconds,38.14,-93.73,2011-04-05,21:16:00
san francisco,ca,us,light,60.0,less than 1 minute,37.78,-122.42,2011-04-05,22:00:00
center barnstead,nh,us,other,300.0,5min,43.34,-71.26,2011-04-05,23:15:00
encinitas,ca,us,formation,45.0,45 seconds,33.04,-117.29,2012-04-05,01:50:00
sharon,ct,us,light,900.0,15 minutes,41.88,-73.48,2012-04-05,11:20:00
allentown,pa,us,rectangle,120.0,2 minutes,40.61,-75.49,2012-04-05,17:45:00
ridgway,il,us,fireball,600.0,10 minutes +/-,37.8,-88.26,2012-04-05,19:45:00
cortez,fl,us,triangle,600.0,10 min,27.47,-82.69,2012-04-05,21:00:00
healdsburg,ca,us,cigar,2.0,2 seconds,38.61,-122.87,2012-04-05,23:00:00
las vegas,nv,us,formation,420.0,7 minutes,36.17,-115.14,2013-04-05,08:30:00
westover,md,us,other,300.0,5 minutes,38.12,-75.71,2013-04-05,18:47:00
jarrettsville,md,us,circle,900.0,15 minutes,39.6,-76.48,2013-04-05,19:00:00
simi valley,ca,us,light,1200.0,20 minutes,34.27,-118.78,2013-04-05,20:00:00
fort lauderdale,fl,us,circle,900.0,15 minutes,26.12,-80.14,2013-04-05,20:30:00
hilmar,ca,us,triangle,120.0,2 minutes,37.41,-120.85,2013-04-05,20:30:00
kitty hawk,nc,us,light,300.0,4-5 minutes,36.06,-75.71,2013-04-05,20:30:00
pittsburgh,pa,us,circle,120.0,2 minutes,40.44,-80.0,2013-04-05,21:00:00
rock springs,wy,us,other,1200.0,~20 minutes,41.59,-109.2,2013-04-05,21:00:00
spartanburg,sc,us,circle,900.0,15 minutes,34.95,-81.93,2013-04-05,22:00:00
ft. worth,tx,us,fireball,120.0,2 minutes,32.73,-97.32,2013-04-05,23:36:00
savannah,ga,us,changing,7200.0,2 hours,32.08,-81.1,2014-04-05,01:22:00
middleburg,fl,us,circle,180.0,2-3 minutes,30.07,-81.86,2014-04-05,02:30:00
eureka,ca,us,light,12.0,12 seconds,40.8,-124.16,2014-04-05,08:50:00
oxford,md,us,cigar,30.0,30 seconds,38.69,-76.17,2014-04-05,11:00:00
punxsutawney,pa,us,disk,240.0,4 minutes,40.94,-78.97,2014-04-05,12:00:00
napa,ca,us,cylinder,6.0,6 seconds,38.3,-122.28,2014-04-05,12:09:00
la crescenta,ca,us,cylinder,240.0,4 minutes,34.22,-118.24,2014-04-05,14:40:00
encinitas,ca,us,light,600.0,10 minutes,33.04,-117.29,2014-04-05,17:40:00
morehead city,nc,us,egg,60.0,40-60 seconds,34.72,-76.73,2014-04-05,18:00:00
wakefield,ma,us,other,300.0,5 minutes,42.51,-71.07,2014-04-05,18:20:00
hobbs,nm,us,changing,60.0,1 minutes,32.7,-103.14,2014-04-05,18:30:00
hobbs,nm,us,changing,60.0,1 minute,32.7,-103.14,2014-04-05,18:30:00
boscawen,nh,us,disk,300.0,5 minutes,43.32,-71.62,2014-04-05,18:45:00
longboat key,fl,us,fireball,300.0,5 minutes,27.41,-82.66,2014-04-05,18:45:00
carthage,nc,us,light,300.0,5 minutes,35.35,-79.42,2014-04-05,20:30:00
hazel green,al,us,light,900.0,15 minutes,34.93,-86.57,2014-04-05,20:30:00
deltona,fl,us,other,300.0,3-5 minutes,28.9,-81.26,2014-04-05,20:35:00
fort wayne,in,us,sphere,1200.0,15-20 minutes,41.13,-85.13,2014-04-05,20:55:00
chesapeake,va,us,circle,600.0,10 minutes,36.82,-76.28,2014-04-05,21:00:00
pinellas park,fl,us,fireball,900.0,15 minutes,27.84,-82.7,2014-04-05,21:00:00
henderson,nv,us,fireball,300.0,5 minutes,36.04,-114.98,2014-04-05,21:15:00
bolingbrook,il,us,changing,15.0,15 seconds,41.7,-88.07,2014-04-05,21:25:00
vero beach,fl,us,light,120.0,1-2 minutes,27.64,-80.4,2014-04-05,21:30:00
fresno,ca,us,fireball,300.0,4-5 minutes,36.75,-119.77,2014-04-05,21:45:00
fairborn,oh,us,light,240.0,3-4 minutes,39.82,-84.02,2014-04-05,21:50:00
kissimmee,fl,us,rectangle,180.0,3 minutes,28.29,-81.41,2014-04-05,22:00:00
austin,tx,us,light,240.0,4 minutes,30.27,-97.74,2014-04-05,22:15:00
tamarac,fl,us,formation,120.0,several minutes,26.21,-80.25,2014-04-05,22:15:00
jerseyville,il,us,circle,5.0,5 seconds,39.12,-90.33,2014-04-05,22:20:00
mesquite,tx,us,cylinder,669.0,11:09,32.77,-96.6,2014-04-05,22:20:00
san antonio,tx,us,triangle,900.0,15 minutes,29.42,-98.49,2014-04-05,22:30:00
san antonio,tx,us,triangle,900.0,15 minutes,29.42,-98.49,2014-04-05,22:30:00
cape canaveral,fl,us,triangle,60.0,1 minute,28.41,-80.6,2014-04-05,23:25:00
hammocks,fl,us,light,5.0,5 seconds,25.67,-80.44,2014-04-05,23:30:00
osceola,ia,us,disk,960.0,16 minutes,41.03,-93.77,1971-04-06,20:00:00
chittenango,ny,us,fireball,21600.0,thursday evening,43.04,-75.87,1978-04-06,20:00:00
port alberni (canada),bc,ca,sphere,60.0,1 minute,49.23,-124.8,1992-04-06,11:30:00
davis,ca,us,cigar,1200.0,15 &#4420 min.,38.54,-121.74,1994-04-06,20:40:00
grosse pointe,mi,us,light,5.0,3 to 5 seconds,42.39,-82.91,1994-04-06,22:00:00
austin,tx,us,fireball,4.0,4 secs.,30.27,-97.74,1999-04-06,10:38:00
fayetteville,ar,us,light,240.0,4 min.,36.06,-94.16,1999-04-06,20:40:00
lakewood,wa,us,other,600.0,10min,47.17,-122.52,1999-04-06,22:00:00
columbia falls,mt,us,triangle,5.0,5 sec,48.37,-114.18,1999-04-06,22:50:00
perris,ca,us,circle,900.0,15 minutes,33.78,-117.23,2000-04-06,14:00:00
seagoville (city of&#44 and dallas city),tx,us,circle,4.0,4 seconds,32.64,-96.54,2000-04-06,15:28:00
glendale,az,us,circle,1800.0,30min,33.54,-112.19,2000-04-06,16:00:00
chattanooga,tn,us,other,7200.0,2 hrs.,35.05,-85.31,2000-04-06,20:00:00
tehachapi,ca,us,light,300.0,5 minutes,35.13,-118.45,2000-04-06,20:00:00
tuckerton,nj,us,sphere,7.0,7 seconds,39.6,-74.34,2000-04-06,20:34:00
arlington,tx,us,light,12.0,12 sec.,32.74,-97.11,2000-04-06,20:35:00
san antonio,tx,us,light,10.0,5-10 seconds,29.42,-98.49,2000-04-06,21:08:00
mount carmel,il,us,fireball,1200.0,20 minutes,38.41,-87.76,2001-04-06,21:00:00
vancouver (canada),bc,ca,circle,3600.0,1 hour,49.25,-123.13,2001-04-06,22:30:00
clinton (canada),bc,ca,disk,120.0,approx: 2 minutes,43.6,-81.53,2002-04-06,06:45:00
isle of palms,sc,us,changing,240.0,4 min.,32.79,-79.8,2003-04-06,03:05:00
phoenix,az,us,sphere,2100.0,35 mins,33.45,-112.07,2003-04-06,16:50:00
studio city,ca,us,chevron,30.0,30 seconds,34.15,-118.4,2003-04-06,23:30:00
saint james,mn,us,formation,1800.0,at least 30 minutes,43.98,-94.63,2003-04-06,23:59:00
fair oaks,ca,us,other,30.0,30 seconds,38.64,-121.27,2004-04-06,12:00:00
new york city (brooklyn),ny,us,other,60.0,1 minute,40.71,-74.01,2004-04-06,15:00:00
philadelphia (northeast),pa,us,sphere,300.0,5 minutes,39.95,-75.16,2004-04-06,19:00:00
tempe,az,us,light,1200.0,20 mins,33.41,-111.91,2004-04-06,22:15:00
oakdale,ca,us,sphere,120.0,2 min,37.77,-120.85,2005-04-06,20:40:00
palm springs,ca,us,triangle,4.0,4 seconds,33.83,-116.54,2005-04-06,21:04:00
hinkley,ca,us,formation,120.0,1  1/2 minutes,34.93,-117.2,2005-04-06,21:15:00
reno,nv,us,light,12600.0,3.5 hours,39.53,-119.81,2005-04-06,21:30:00
sammamish,wa,us,circle,3.0,3 seconds,47.64,-122.08,2006-04-06,01:00:00
scottsdale,az,us,triangle,10.0,10 seconds,33.51,-111.9,2006-04-06,01:30:00
mccamey (near),tx,us,oval,120.0,approx 2 minutes,31.14,-102.22,2006-04-06,05:50:00
kansas city,ks,us,triangle,5.0,5 seconds,39.11,-94.63,2006-04-06,21:00:00
phoenix,az,us,cylinder,5.0,5 seconds,33.45,-112.07,2006-04-06,21:33:00
ilford (canada),mb,ca,light,1800.0,30 mins,56.07,-95.63,2006-04-06,23:35:00
kennewick (benton city??),wa,us,light,120.0,2min,46.21,-119.14,2007-04-06,09:50:00
black canyon city,az,us,triangle,1800.0,30 minutes,34.07,-112.15,2007-04-06,20:00:00
jacksonville,al,us,diamond,45.0,45 sec.,33.81,-85.76,2007-04-06,20:45:00
everett,wa,us,other,7.0,5-7seconds,47.98,-122.2,2007-04-06,23:00:00
allison park,pa,us,light,180.0,3 minutes,40.56,-79.96,2007-04-06,23:15:00
waterloo (canada),on,ca,light,10.0,5-10 seconds,45.35,-72.52,2008-04-06,00:30:00
bristol,in,us,chevron,8.0,8 sec,41.72,-85.82,2008-04-06,01:00:00
tucson,az,us,cigar,60.0,1 min,32.22,-110.93,2008-04-06,11:00:00
lancaster,oh,us,sphere,60.0,one minute,39.71,-82.6,2008-04-06,18:00:00
monroe,wa,us,light,45.0,45 seconds,47.86,-121.97,2008-04-06,21:30:00
stoneham,ma,us,cylinder,30.0,30 seconds,42.48,-71.1,2008-04-06,22:00:00
oakville (canada),on,ca,triangle,10.0,10 seconds,43.43,-79.67,2008-04-06,23:00:00
orleans (canada),on,ca,light,12.0,8-12 seconds,45.47,-75.52,2008-04-06,23:45:00
pensacola,fl,us,triangle,30.0,30 sec,30.42,-87.22,2009-04-06,01:02:00
nashville,tn,us,light,120.0,2 min,36.17,-86.78,2009-04-06,09:15:00
bridgeton,mo,us,disk,300.0,5 min,38.77,-90.41,2009-04-06,13:15:00
indianapolis,in,us,triangle,7.0,7 seconds,39.77,-86.16,2009-04-06,18:10:00
clive,ia,us,sphere,3.0,3 seconds,41.6,-93.72,2009-04-06,21:00:00
nashville,tn,us,oval,120.0,2min,36.17,-86.78,2009-04-06,21:15:00
arlington,wa,us,other,600.0,about 10min,48.2,-122.12,2009-04-06,22:30:00
carson,ca,us,other,30.0,30 seconds,33.83,-118.28,2009-04-06,22:30:00
columbus,oh,us,triangle,12.0,12 seconds,39.96,-83.0,2010-04-06,04:32:00
san marcos,ca,us,oval,30.0,30 seconds,33.14,-117.17,2010-04-06,20:57:00
cleveland,oh,us,fireball,300.0,3-5min,41.5,-81.7,2010-04-06,22:05:00
wallaceburg (canada),on,ca,light,6.0,4 to 6 seconds,42.58,-82.37,2010-04-06,22:13:00
toronto (canada),on,ca,cigar,30.0,00:30,43.67,-79.42,2010-04-06,23:30:00
mystic,ct,us,triangle,360.0,5-6 mins,41.35,-71.97,2011-04-06,01:00:00
south williamsport,pa,us,diamond,2.0,2 seconds,41.23,-77.0,2011-04-06,01:23:00
hatfield,ma,us,formation,7.0,7 seconds,42.37,-72.6,2011-04-06,03:15:00
san antonio,tx,us,other,120.0,few minutes,29.42,-98.49,2011-04-06,15:21:00
las vegas,nv,us,triangle,600.0,10 minutes,36.17,-115.14,2011-04-06,17:00:00
knoxville,tn,us,egg,5.0,3 to 5 seconds,35.96,-83.92,2011-04-06,21:20:00
melrose park,il,us,light,180.0,3 minutes,41.9,-87.86,2012-04-06,04:00:00
denver,co,us,diamond,120.0,a few minutes,39.74,-104.98,2012-04-06,09:27:00
detroit,mi,us,other,600.0,10 min,42.33,-83.05,2012-04-06,12:55:00
passaic,nj,us,diamond,120.0,2 minutes,40.86,-74.13,2012-04-06,14:00:00
tooele (west of),ut,us,oval,600.0,10 minutes,40.53,-112.3,2012-04-06,17:00:00
san jose,il,us,oval,300.0,5 minutes,40.31,-89.6,2012-04-06,21:15:00
pittsburgh,pa,us,light,6.0,6 seconds,40.44,-80.0,2012-04-06,21:27:00
north las vegas,nv,us,formation,300.0,5 minutes,36.2,-115.12,2012-04-06,21:30:00
reading,pa,us,egg,180.0,2 to 3 minutes,40.34,-75.93,2012-04-06,21:50:00
san francisco,ca,us,fireball,180.0,3 minutes,37.78,-122.42,2012-04-06,22:48:00
bethel,ak,us,circle,30.0,30 seconds,60.79,-161.76,2012-04-06,22:50:00
madisonville,ky,us,light,120.0,a few minutes,37.33,-87.5,2012-04-06,22:50:00
webster,ma,us,sphere,180.0,3 minutes,42.05,-71.88,2012-04-06,22:50:00
wichita falls,tx,us,light,1800.0,30 minutes,33.91,-98.49,2012-04-06,23:00:00
houston,tx,us,circle,300.0,5 minutes,29.76,-95.36,2013-04-06,08:45:00
panama city beach,fl,us,circle,900.0,15 minutes,30.18,-85.81,2013-04-06,09:25:00
albuquerque,nm,us,circle,120.0,2 minutes,35.08,-106.65,2013-04-06,10:35:00
mesa,az,us,formation,600.0,5-10 minutes,33.42,-111.82,2013-04-06,10:59:00
corydon,in,us,sphere,120.0,1-2 minutes,38.21,-86.12,2013-04-06,19:45:00
casselberry,fl,us,other,300.0,5 minutes,28.68,-81.33,2013-04-06,20:00:00
greenville,sc,us,light,120.0,2 minutes,34.85,-82.39,2013-04-06,20:00:00
patten,me,us,light,900.0,15 minutes,46.0,-68.45,2013-04-06,20:30:00
floyd,va,us,triangle,180.0,3 minutes,36.91,-80.32,2013-04-06,20:34:00
austin,tx,us,fireball,45.0,45 seconds,30.27,-97.74,2013-04-06,20:55:00
pittsburgh (in south hills area),pa,us,oval,300.0,5 minutes,40.44,-80.0,2013-04-06,21:00:00
fredericksburg,va,us,oval,90.0,90 seconds,38.3,-77.46,2013-04-06,21:40:00
lebanon,pa,us,circle,60.0,00:01:00,40.34,-76.41,2013-04-06,21:58:00
redwood city,ca,us,triangle,1200.0,20 minutes,37.49,-122.24,2013-04-06,22:00:00
round lake,il,us,light,900.0,15 minutes,42.35,-88.09,2013-04-06,22:00:00
honesdale,pa,us,formation,300.0,5 minutes,41.58,-75.26,2013-04-06,22:05:00
brampton (canada),on,ca,light,1800.0,30 minutes,43.68,-79.77,2013-04-06,22:30:00
pittsburgh,pa,us,formation,61.0,1:01,40.44,-80.0,2013-04-06,22:39:00
rockport,ma,us,circle,120.0,2 minutes,42.66,-70.62,2013-04-06,23:00:00
slidell,la,us,fireball,1800.0,30 minutes,30.28,-89.78,2013-04-06,23:00:00
charleston,sc,us,formation,120.0,1-2 minutes,32.78,-79.93,2013-04-06,23:30:00
dawsonville,ga,us,light,90.0,90 seconds,34.42,-84.12,2013-04-06,23:45:00
palm city,fl,us,light,2.0,2 seconds,27.17,-80.27,2014-04-06,00:00:00
orlando,fl,us,formation,300.0,5 minutes,28.54,-81.38,2014-04-06,00:15:00
miami,fl,us,circle,5.0,5 seconds,25.77,-80.19,2014-04-06,00:30:00
cape girardeau,mo,us,circle,1.0,1 second,37.31,-89.52,2014-04-06,04:00:00
paris,tx,us,sphere,30.0,30 seconds,33.66,-95.56,2014-04-06,11:30:00
cornwallville,ny,us,cigar,8.0,8 seconds,42.37,-74.16,2014-04-06,13:15:00
danbury,ct,us,sphere,600.0,10 minutes,41.39,-73.45,2014-04-06,17:45:00
west peabody,ma,us,formation,180.0,1-3 minutes,42.53,-70.93,2014-04-06,18:30:00
union,or,us,flash,30.0,30 seconds,45.21,-117.86,2014-04-06,20:00:00
edison,nj,us,flash,300.0,5 minutes,40.52,-74.41,2014-04-06,20:30:00
melbourne beach,fl,us,light,1800.0,30+ minutes,28.07,-80.56,2014-04-06,21:00:00
aloha,or,us,oval,480.0,8 minutes,45.49,-122.87,2014-04-06,22:18:00
salt lake city,ut,us,diamond,120.0,~2 minutes,40.76,-111.89,2014-04-06,22:45:00
vero beach,fl,us,disk,600.0,10 minutes,27.64,-80.4,1963-04-07,20:00:00
miami,fl,us,disk,600.0,10 minutes,25.77,-80.19,1967-04-07,10:00:00
columbia station  (rt. 252),oh,us,sphere,600.0,10 minutes,41.31,-81.95,1968-04-07,10:00:00
fruita,co,us,triangle,900.0,15 minutes,39.16,-108.73,1983-04-07,00:00:00
honolulu,hi,us,oval,30.0,30 seconds,21.31,-157.86,1983-04-07,23:00:00
jackson,mi,us,light,240.0,3-4 min.,42.25,-84.4,1994-04-07,10:00:00
brookfield,ct,us,light,30.0,00:00:30,41.48,-73.41,1994-04-07,21:00:00
hendersonville,tn,us,triangle,600.0,10 minutes,36.3,-86.62,1995-04-07,17:00:00
colorado springs,co,us,cylinder,300.0,5 minutes,38.83,-104.82,1997-04-07,05:30:00
milwaukee,wi,us,other,300.0,5 minutes,43.04,-87.91,1997-04-07,14:00:00
austin,tx,us,triangle,1800.0,30 mins,30.27,-97.74,1997-04-07,17:00:00
las cruces,nm,us,oval,60.0,less than a minute,32.31,-106.78,1999-04-07,03:20:00
fargo,nd,us,other,12.0,12 seconds,46.88,-96.79,1999-04-07,13:30:00
hamersville,oh,us,light,1800.0,30 min,38.92,-83.98,2001-04-07,00:05:00
pepper pike,oh,us,cigar,10.0,10 seconds,41.48,-81.46,2001-04-07,15:30:00
new brunswick,nj,us,disk,120.0,2 minutes,40.49,-74.45,2001-04-07,20:21:00
milwaukee,wi,us,cigar,45.0,30-45 seconds,43.04,-87.91,2001-04-07,22:15:00
antioch,ca,us,egg,688.0,11:28,38.01,-121.8,2001-04-07,23:23:00
san diego,ca,us,light,240.0,3-4 minutes,32.72,-117.16,2002-04-07,02:00:00
montreal (canada),pq,ca,light,60.0,1mn,45.5,-73.58,2002-04-07,04:30:00
granite falls,wa,us,light,1200.0,20mn,48.08,-121.97,2002-04-07,21:15:00
anacortes,wa,us,rectangle,300.0,5 minutes,48.51,-122.61,2003-04-07,01:07:00
franklin,tn,us,disk,7.0,7 seconds,35.92,-86.87,2003-04-07,14:30:00
winnipeg (canada),mb,ca,circle,2.0,a couple of seconds,49.88,-97.17,2003-04-07,22:47:00
bullhead city,az,us,other,30.0,30 seconds,35.15,-114.57,2004-04-07,09:00:00
columbia falls,mt,us,light,240.0,3-4 minutes,48.37,-114.18,2004-04-07,14:00:00
miami,fl,us,light,1203.0,20:03,25.77,-80.19,2004-04-07,20:00:00
bullhead city,az,us,other,600.0,10 min.,35.15,-114.57,2004-04-07,20:05:00
austin,tx,us,light,5.0,5 seconds,30.27,-97.74,2004-04-07,20:15:00
port mansfield,tx,us,cone,3.0,3 seconds,26.55,-97.42,2004-04-07,21:00:00
erie,pa,us,diamond,37800.0,1 1/2 hr,42.13,-80.09,2004-04-07,21:30:00
savannah,ga,us,triangle,30.0,30 sec,32.08,-81.1,2004-04-07,21:30:00
surrey (canada),bc,ca,triangle,4.0,4 seconds,49.14,-122.82,2004-04-07,21:45:00
fort smith,ar,us,changing,1560.0,26 minutes,35.39,-94.4,2004-04-07,22:00:00
college station,tx,us,formation,10.0,10 sec,30.63,-96.33,2004-04-07,23:00:00
chester,va,us,circle,180.0,3 min,37.36,-77.44,2005-04-07,00:00:00
lake havasu city,az,us,other,10.0,10 sec,34.48,-114.32,2005-04-07,08:30:00
deming (somewhere near),nm,us,changing,1200.0,20 minutes,32.27,-107.76,2005-04-07,17:01:00
st. ignatius,mt,us,sphere,3.0,3 seconds,47.32,-114.09,2005-04-07,20:00:00
omaha,ne,us,diamond,1500.0,25 minutes,41.26,-95.94,2005-04-07,21:00:00
hopkins,mn,us,triangle,7.0,7 seconds,44.92,-93.46,2005-04-07,23:00:00
monroe,la,us,disk,300.0,5 minutes,32.51,-92.12,2006-04-07,00:00:00
nevada city,ca,us,light,21600.0,midnight to dawn,39.26,-121.02,2006-04-07,00:05:00
fresno,ca,us,light,60.0,1 minute,36.75,-119.77,2006-04-07,06:01:00
sacramento (60 east of),ca,us,light,120.0,minutes,38.58,-121.49,2006-04-07,06:15:00
jacksonville,nc,us,cigar,2700.0,30- 45 min,34.75,-77.43,2006-04-07,09:30:00
san jose,ca,us,other,10.0,10 sec.,37.34,-121.89,2006-04-07,10:25:00
mississauga (canada),on,ca,disk,15.0,10-15 seconds,43.15,-79.5,2006-04-07,12:30:00
maynardville (near),tn,us,light,5.0,5 seconds,36.25,-83.8,2006-04-07,19:55:00
los angeles,ca,us,disk,300.0,5 minutes,34.05,-118.24,2006-04-07,22:00:00
pond inlet (canada),nt,ca,circle,30.0,30 seconds,72.7,-78.0,2006-04-07,22:44:00
omaha,ne,us,triangle,900.0,15 minutes,41.26,-95.94,2006-04-07,23:45:00
spokane,wa,us,fireball,20.0,20 sec,47.66,-117.42,2007-04-07,12:24:00
arlington,va,us,light,1200.0,20 min,38.89,-77.08,2007-04-07,18:45:00
doraville,ga,us,disk,900.0,15min.,33.9,-84.28,2007-04-07,19:00:00
rancho cucamonga,ca,us,light,5.0,5 seconds,34.11,-117.59,2007-04-07,22:45:00
sanger,ca,us,light,2.0,2 sec,36.71,-119.56,2008-04-07,07:48:00
ferrisburgh,vt,us,light,420.0,7 minutes,44.21,-73.25,2008-04-07,16:00:00
palestine (near),il,us,circle,600.0,10 mins,39.0,-87.61,2008-04-07,18:00:00
brentwood (contra costa),ca,us,other,900.0,15 mins,37.93,-121.69,2008-04-07,21:00:00
uxbridge,ma,us,light,1800.0,30 mins,42.08,-71.63,2008-04-07,21:00:00
brentwood,ca,us,chevron,480.0,8 mins,37.93,-121.69,2008-04-07,21:30:00
brentwood,ca,us,chevron,480.0,8 mins,37.93,-121.69,2008-04-07,21:30:00
rivers (canada),mb,ca,light,1800.0,30 min,50.03,-100.22,2008-04-07,22:00:00
toledo,oh,us,light,4.0,4 seconds,41.66,-83.56,2008-04-07,22:00:00
tuscola,tx,us,light,2.0,few seconds,32.21,-99.8,2008-04-07,22:00:00
mediapolis,ia,us,triangle,10.0,10 seconds,41.01,-91.16,2008-04-07,22:30:00
salisbury,nh,us,triangle,300.0,5 mins,43.38,-71.72,2008-04-07,22:30:00
plantation,fl,us,chevron,30.0,20 to 30 seconds,26.13,-80.23,2008-04-07,23:05:00
austin,tx,us,circle,1200.0,about 20 min,30.27,-97.74,2009-04-07,00:00:00
daytona beach,fl,us,oval,2.0,2 seconds,29.21,-81.02,2009-04-07,21:01:00
vero beach,fl,us,light,5.0,5 sec,27.64,-80.4,2009-04-07,21:42:00
tampa,fl,us,sphere,1.5,1-1.5 seconds,27.95,-82.46,2009-04-07,21:45:00
lorida,fl,us,sphere,10.0,10 seconds,27.44,-81.25,2009-04-07,22:10:00
abilene,tx,us,triangle,1800.0,30 minutes,32.45,-99.73,2009-04-07,22:30:00
las vegas,nv,us,formation,30.0,20 to 30 seconds,36.17,-115.14,2009-04-07,22:30:00
jacksonville beach,fl,us,light,60.0,60 seconds,30.29,-81.39,2009-04-07,23:20:00
pomona,ca,us,light,180.0,2-3 minutes,34.06,-117.75,2010-04-07,05:20:00
burns,or,us,disk,2.0,secounts,43.59,-119.05,2010-04-07,20:30:00
tulsa,ok,us,light,10.0,8 to 10 seconds,36.15,-95.99,2010-04-07,22:13:00
montmagny (canada),qc,ca,disk,7200.0,2 hours,46.97,-70.55,2010-04-07,23:00:00
tulsa,ok,us,light,10.0,8-10 seconds,36.15,-95.99,2010-04-07,23:13:00
grand forks,nd,us,changing,10.0,10 seconds,47.93,-97.03,2011-04-07,01:40:00
san antonio,tx,us,circle,12600.0,3.5 hours,29.42,-98.49,2011-04-07,02:00:00
fishers,in,us,light,2.0,seconds,39.96,-86.01,2011-04-07,05:03:00
new york,ny,us,cylinder,6.0,6 seconds,40.71,-74.01,2011-04-07,09:00:00
valatie,ny,us,light,300.0,five minutes?,42.41,-73.67,2011-04-07,19:00:00
ottawa (canada),on,ca,light,120.0,1-2 min,45.42,-75.7,2011-04-07,20:35:00
lexington,ky,us,sphere,300.0,5 minutes,37.99,-84.48,2011-04-07,21:00:00
stamford,ct,us,sphere,2.0,2 seconds,41.05,-73.54,2011-04-07,21:54:00
barrie (canada),on,ca,other,120.0,00:2 mins,44.38,-79.7,2011-04-07,23:00:00
ludowici,ga,us,fireball,3.0,3 seconds,31.71,-81.74,2012-04-07,02:35:00
sarasota,fl,us,light,3.0,3 seconds,27.34,-82.53,2012-04-07,03:00:00
spokane,wa,us,triangle,300.0,5 minutes,47.66,-117.42,2012-04-07,07:40:00
kingston,ny,us,formation,60.0,1 minute,41.93,-74.0,2012-04-07,19:00:00
oak forest,il,us,formation,900.0,15 minutes,41.6,-87.74,2012-04-07,20:00:00
huntington station,ny,us,light,30.0,30 seconds,40.85,-73.41,2012-04-07,20:45:00
cedar park,tx,us,changing,2700.0,45 minutes,30.5,-97.82,2012-04-07,21:00:00
mooresville,in,us,light,120.0,2 minutes,39.61,-86.37,2012-04-07,21:00:00
asheville,nc,us,fireball,300.0,5:00,35.6,-82.55,2012-04-07,21:28:00
rocklin,ca,us,sphere,600.0,7-10 mins,38.79,-121.23,2012-04-07,21:30:00
deltona,fl,us,circle,16.0,00:16,28.9,-81.26,2012-04-07,22:11:00
hope,id,us,disk,3600.0,1 hour,48.25,-116.31,2012-04-07,22:15:00
dallas,tx,us,triangle,30.0,30 seconds,32.78,-96.8,2012-04-07,22:30:00
citronelle,al,us,triangle,120.0,2 mins,31.09,-88.23,2012-04-07,23:00:00
kennesaw,ga,us,fireball,300.0,5 minutes,34.02,-84.62,2012-04-07,23:00:00
ocala,fl,us,light,60.0,1 minute,29.19,-82.14,2013-04-07,01:00:00
sequim,wa,us,fireball,240.0,3-4 minutes,48.08,-123.1,2013-04-07,01:28:00
williamsport,md,us,light,7200.0,2 hours,39.6,-77.82,2013-04-07,02:00:00
la puente,ca,us,light,420.0,~5-7 minutes,34.02,-117.95,2013-04-07,20:45:00
stanardsville,va,us,fireball,180.0,3 minutes,38.3,-78.44,2013-04-07,22:15:00
provo,ut,us,changing,3600.0,1 hour,40.23,-111.66,2014-04-07,00:00:00
jacksonville,fl,us,triangle,120.0,1-2 minutes,30.33,-81.66,2014-04-07,06:45:00
pleasanton,ca,us,sphere,2.0,2 seconds,37.66,-121.87,2014-04-07,12:54:00
daytona beach,fl,us,rectangle,30.0,.5 minutes,29.21,-81.02,2014-04-07,20:00:00
de land,il,us,cylinder,600.0,10 minutes,40.12,-88.65,2014-04-07,20:00:00
san jacinto,ca,us,light,120.0,2 minutes,33.78,-116.96,2014-04-07,20:05:00
antioch,il,us,sphere,600.0,10 minutes,42.48,-88.1,2014-04-07,20:20:00
rootstown,oh,us,sphere,900.0,15 minutes,41.1,-81.24,2014-04-07,20:30:00
lake worth,fl,us,disk,600.0,~10 minutes,26.62,-80.06,2014-04-07,21:00:00
bonsall,ca,us,triangle,30.0,20-30 seconds,33.29,-117.22,2014-04-07,21:45:00
walla walla,wa,us,triangle,1200.0,@ 20 minutes,46.06,-118.34,1968-04-08,18:45:00
ventura,ca,us,disk,600.0,10 min,34.28,-119.29,1992-04-08,21:00:00
sonoma,ca,us,chevron,4.0,4 sec.,38.29,-122.46,1997-04-08,19:45:00
las vegas,nv,us,rectangle,15.0,15 sec,36.17,-115.14,1997-04-08,20:00:00
cardiff-by-the-sea,ca,us,fireball,600.0,7-10 minutes,33.02,-117.28,1999-04-08,00:00:00
glendale,wi,us,triangle,25.0,25sec.,43.14,-87.94,1999-04-08,01:45:00
ridgecrest,ca,us,changing,1800.0,30 minutes,35.62,-117.67,1999-04-08,14:30:00
manhasset (long island),ny,us,triangle,240.0,4 minutes,40.8,-73.7,1999-04-08,20:45:00
granite city,il,us,light,1500.0,25 minutes,38.7,-90.15,1999-04-08,22:30:00
vero beach,fl,us,diamond,600.0,5-10 minutes,27.64,-80.4,2000-04-08,01:30:00
seattle,wa,us,egg,1200.0,20 minutes,47.61,-122.33,2000-04-08,18:00:00
seattle,wa,us,egg,180.0,2-3minutes,47.61,-122.33,2000-04-08,18:35:00
lackawaxen,pa,us,light,3.0,3 seconds,41.48,-74.99,2001-04-08,02:27:00
pulaski,wi,us,changing,300.0,5 minutes,44.67,-88.24,2002-04-08,08:30:00
tampa,fl,us,light,15.0,15 seconds,27.95,-82.46,2002-04-08,09:45:00
middletown (suburb),oh,us,triangle,6.0,6 seconds,39.52,-84.4,2002-04-08,23:48:00
fort klamath,or,us,oval,1500.0,25 minutes,42.7,-121.99,2003-04-08,01:00:00
dubuque (county  highway 151),ia,us,light,5.0,5 seconds,42.5,-90.66,2003-04-08,01:30:00
dubuque,ia,us,light,5.0,5 seconds,42.5,-90.66,2003-04-08,01:36:00
tempe,az,us,cylinder,60.0,1 minute or so,33.41,-111.91,2003-04-08,12:05:00
gold bar,wa,us,cigar,10.0,10 seconds,47.86,-121.7,2003-04-08,21:50:00
cranbrook (canada),bc,ca,other,3600.0,1hr,49.52,-115.77,2003-04-08,23:30:00
grand forks (60 km north of) (arrow lakes) (canada),bc,ca,diamond,2400.0,40.00 min,49.05,-118.47,2004-04-08,00:30:00
charlotte,nc,us,disk,300.0,5 min,35.23,-80.84,2004-04-08,06:20:00
chicago,il,us,triangle,695.0,11:35,41.85,-87.65,2004-04-08,11:30:00
knoxville,tn,us,disk,45.0,45 seconds,35.96,-83.92,2004-04-08,17:30:00
logansport,in,us,disk,2.0,seconds,40.75,-86.36,2004-04-08,18:00:00
fullerton,ca,us,other,30.0,30 seconds,33.87,-117.92,2004-04-08,20:43:00
manly,ia,us,triangle,20.0,20 seconds,43.29,-93.2,2004-04-08,21:00:00
rochester,in,us,circle,25.0,25seconds,41.06,-86.22,2004-04-08,21:00:00
rochester,in,us,disk,60.0,1 min,41.06,-86.22,2004-04-08,22:00:00
winamac,in,us,light,300.0,5 min,41.05,-86.6,2004-04-08,22:00:00
vernon (canada),bc,ca,other,3.0,approx: 3 seconds,46.18,-62.88,2004-04-08,23:00:00
houston,tx,us,cylinder,10.0,10 seconds,29.76,-95.36,2004-04-08,23:17:00
smithers (canada),bc,ca,light,45.0,approx: 45 seconds.,54.77,-127.17,2004-04-08,23:20:00
knoxville,tn,us,other,480.0,5 to 8 minutes,35.96,-83.92,2004-04-08,23:40:00
knoxville,tn,us,other,480.0,5 to 8 minutes,35.96,-83.92,2004-04-08,23:40:00
greensboro,nc,us,disk,180.0,3 minutes,36.07,-79.79,2005-04-08,06:38:00
utica,ny,us,circle,5.0,>5 seconds,43.1,-75.23,2005-04-08,17:00:00
kansas city,ks,us,circle,2.0,2 seconds,39.11,-94.63,2005-04-08,21:30:00
beardstown,il,us,formation,600.0,10 minutes +,40.02,-90.42,2006-04-08,11:15:00
pecos,nm,us,disk,600.0,10 mins,35.57,-105.67,2006-04-08,12:30:00
santa clarita,ca,us,circle,1200.0,20 min,34.39,-118.54,2006-04-08,15:40:00
calgary (canada),ab,ca,triangle,1380.0,23 minutes,51.08,-114.08,2006-04-08,21:38:00
oley,pa,us,sphere,120.0,2 minutes,40.39,-75.79,2006-04-08,22:30:00
sanbornton,nh,us,disk,300.0,5 min,43.49,-71.58,2006-04-08,22:43:00
augusta,ga,us,light,2.0,few seconds,33.47,-81.98,2006-04-08,23:00:00
ft. lauderdale,fl,us,other,5.5,5.5 to 6 seconds,26.12,-80.14,2007-04-08,03:20:00
baltimore,md,us,light,8.0,8 seconds,39.29,-76.61,2007-04-08,21:05:00
new milford,ct,us,light,604800.0,1 week,41.58,-73.41,2007-04-08,22:00:00
centralia,mo,us,sphere,180.0,2-3 minutes,39.21,-92.14,2007-04-08,22:35:00
hendersonville,tn,us,other,120.0,2 min,36.3,-86.62,2008-04-08,06:00:00
maltby,wa,us,sphere,90.0,1 min 30 sec,47.81,-122.11,2008-04-08,12:20:00
harrisville,wv,us,light,120.0,2 minutes,39.21,-81.05,2008-04-08,20:30:00
statesville,nc,us,changing,420.0,approximately 7 minutes,35.78,-80.89,2008-04-08,22:35:00
fort sumner,nm,us,light,2.0,a few seconds,34.47,-104.24,2009-04-08,05:00:00
toledo,oh,us,circle,300.0,5 mins,41.66,-83.56,2009-04-08,21:55:00
bonita springs,fl,us,disk,3.0,3 seconds,26.34,-81.78,2009-04-08,22:00:00
holden beach,nc,us,light,2400.0,40 minutes,33.91,-78.3,2009-04-08,22:00:00
bunnell,fl,us,changing,600.0,5/10 minutes,29.47,-81.26,2010-04-08,00:00:00
atascocita,tx,us,disk,60.0,1 minute,30.0,-95.18,2010-04-08,00:22:00
amelia,oh,us,triangle,10.0,10 seconds,39.03,-84.22,2010-04-08,01:34:00
westchester,ca,us,circle,15.0,10-15 seconds,33.96,-118.4,2010-04-08,05:15:00
downey,ca,us,sphere,3600.0,1 hour,33.94,-118.13,2010-04-08,09:45:00
salinas,ca,us,cigar,3060.0,51 minutes,36.68,-121.65,2010-04-08,15:15:00
san diego,ca,us,triangle,10800.0,3 hours,32.72,-117.16,2010-04-08,19:37:00
dripping springs,tx,us,oval,45.0,45 seconds,30.19,-98.09,2010-04-08,20:49:00
dripping springs,tx,us,oval,45.0,45 seconds,30.19,-98.09,2010-04-08,20:49:00
pomona,ca,us,fireball,1200.0,20 minutes,34.06,-117.75,2010-04-08,21:45:00
cotulla,tx,us,triangle,60.0,1 min,28.44,-99.23,2010-04-08,22:00:00
evergreen,co,us,light,1200.0,20 minutes,39.63,-105.32,2010-04-08,22:00:00
shreveport,la,us,other,600.0,ten minutes,32.52,-93.75,2010-04-08,22:00:00
brady,wa,us,light,600.0,10 minutes,47.0,-123.51,2010-04-08,22:40:00
brady,wa,us,light,600.0,10 minutes,47.0,-123.51,2010-04-08,22:40:00
brady,wa,us,light,480.0,8 minutes,47.0,-123.51,2010-04-08,22:45:00
auburn,ny,us,triangle,600.0,10 minutes,42.93,-76.57,2011-04-08,01:00:00
corning,ca,us,other,4.0,4 sec,39.93,-122.18,2011-04-08,03:00:00
easton,ma,us,light,6.0,4-6sec.,42.02,-71.13,2011-04-08,03:57:00
spokane,wa,us,circle,180.0,3 minutes,47.66,-117.42,2011-04-08,12:40:00
unionville,tn,us,circle,1800.0,30 min,35.62,-86.59,2011-04-08,20:30:00
huntington beach,ca,us,circle,900.0,15 minutes,33.66,-118.0,2011-04-08,21:00:00
orlando,fl,us,triangle,300.0,4-5 minutes,28.54,-81.38,2011-04-08,22:00:00
woodland,wa,us,triangle,60.0,1 minute,45.9,-122.74,2011-04-08,23:00:00
st. anthony,id,us,flash,3.0,3 seconds,43.97,-111.68,2012-04-08,00:32:00
richmond,va,us,changing,900.0,15 minutes,37.55,-77.46,2012-04-08,01:00:00
kansas city,mo,us,disk,3.0,3 seconds,39.1,-94.58,2012-04-08,01:30:00
norco,ca,us,light,120.0,2 min,33.93,-117.55,2012-04-08,20:00:00
la mirada,ca,us,light,60.0,1 minute,33.92,-118.01,2012-04-08,20:05:00
miami,fl,us,circle,20.0,20 seconds,25.77,-80.19,2012-04-08,20:25:00
marysville,ca,us,light,45.0,45 seconds,39.15,-121.59,2012-04-08,20:35:00
rosemount,mn,us,disk,120.0,2 minutes,44.74,-93.13,2012-04-08,21:30:00
seattle,wa,us,sphere,300.0,3-5 minutes,47.61,-122.33,2012-04-08,21:30:00
seattle,wa,us,fireball,60.0,1 minutes,47.61,-122.33,2012-04-08,21:40:00
columbus,oh,us,oval,900.0,15 minutes,39.96,-83.0,2012-04-08,22:00:00
port clinton,oh,us,cylinder,1200.0,20 minutes,41.51,-82.94,2013-04-08,17:00:00
pullman,wa,us,light,300.0,5 minutes,46.73,-117.18,2013-04-08,20:00:00
columbia,tn,us,other,120.0,2 minutes,35.62,-87.04,2013-04-08,20:32:00
clarkston,wa,us,light,3600.0,1 hour,46.42,-117.04,2013-04-08,23:00:00
fairfield,ca,us,triangle,300.0,5 minutes,38.25,-122.04,2013-04-08,23:00:00
kokomo,in,us,triangle,3600.0,1 hour,40.49,-86.13,2014-04-08,00:00:00
aurora,co,us,light,3600.0,hours,39.73,-104.83,2014-04-08,01:00:00
gun barrel city,tx,us,other,4500.0,75 minutes,32.33,-96.15,2014-04-08,01:15:00
el reno,ok,us,oval,3.0,3 seconds,35.53,-97.95,2014-04-08,04:00:00
quincy,ma,us,light,180.0,~3 minutes,42.25,-71.0,2014-04-08,08:00:00
fillmore,ca,us,oval,900.0,15 minutes,34.4,-118.92,2014-04-08,20:00:00
rodeo,nm,us,light,60.0,~1 minute,31.84,-109.03,2014-04-08,20:45:00
blaine,wa,us,sphere,600.0,10 minutes,48.99,-122.75,2014-04-08,21:30:00
greencastle,pa,us,triangle,600.0,10 minutes,39.79,-77.73,2014-04-08,21:35:00
garner,nc,us,formation,180.0,3 minutes,35.71,-78.61,2014-04-08,21:45:00
romeoville,il,us,light,120.0,1-2 minutes,41.65,-88.09,2014-04-08,21:50:00
duluth,ga,us,light,30.0,30 seconds,34.0,-84.14,2014-04-08,22:28:00
kingman (~30 miles n on 93),az,us,light,7.0,7 seconds,35.19,-114.05,2014-04-08,22:30:00
montello,wi,us,formation,40.0,35-40 seconds,43.79,-89.32,2014-04-08,23:00:00
milwaukee,wi,us,light,600.0,10 minutes,43.04,-87.91,2014-04-08,23:15:00
lawrenceville,nj,us,other,480.0,about 8 minutes,40.3,-74.73,1987-04-09,19:20:00
colorado springs,co,us,other,900.0,15 mins,38.83,-104.82,1998-04-09,21:15:00
colorado springs,co,us,other,4.0,4 seconds,38.83,-104.82,1998-04-09,21:34:00
costa mesa,ca,us,egg,600.0,10min,33.64,-117.92,1998-04-09,23:45:00
edmond,ok,us,fireball,5.0,5 seconds,35.65,-97.48,1999-04-09,23:44:00
menifee,ca,us,fireball,3.0,3 seconds,33.73,-117.15,2000-04-09,01:10:00
oceanside (5-10 minutes drive /miles south of),ca,us,fireball,1.5,0.5 to 1 sec.,33.2,-117.38,2000-04-09,01:10:00
santa barbara,ca,us,fireball,10.0,5-10 sec,34.42,-119.7,2000-04-09,01:11:00
hot springs,ar,us,cigar,21600.0,5-6 hours,34.5,-93.06,2000-04-09,16:30:00
temple city,ca,us,light,9.0,7-9 sec,34.11,-118.06,2000-04-09,20:00:00
springfield (??) (schuyler county),il,us,oval,25.0,25 seconds,39.8,-89.64,2000-04-09,22:30:00
battle ground,wa,us,fireball,3.0,3 seconds,45.78,-122.53,2001-04-09,00:12:00
talkeetna (matsue area),ak,us,triangle,360.0,6:00,62.32,-150.11,2001-04-09,05:22:00
corvallis,or,us,fireball,8.0,6-8 seconds,44.56,-123.26,2001-04-09,22:00:00
green valley,az,us,circle,45.0,45 secs.,31.85,-110.99,2002-04-09,20:00:00
felton,pa,us,circle,10.0,10 seconds,39.85,-76.56,2003-04-09,01:00:00
millville,mn,us,oval,120.0,1/2  minute,44.24,-92.3,2003-04-09,03:30:00
santa rosa,ca,us,other,40.0,40 sec,38.44,-122.71,2003-04-09,21:00:00
lawrenceville,ga,us,cigar,720.0,12 minutes,33.96,-83.99,2004-04-09,02:04:00
union (hood canal),wa,us,fireball,5.0,5 seconds,47.36,-123.1,2004-04-09,02:30:00
bakersfield,ca,us,other,1800.0,30 minutes,35.37,-119.02,2004-04-09,06:20:00
smyrna,ga,us,other,4.0,3-4 seconds,33.88,-84.51,2004-04-09,07:15:00
ellicott city,md,us,other,60.0,1 minute,39.27,-76.8,2004-04-09,10:02:00
lawrenceville,ga,us,cylinder,780.0,13 minutes,33.96,-83.99,2004-04-09,14:03:00
wenatchee,wa,us,other,120.0,2 minutes,47.42,-120.31,2004-04-09,20:30:00
lemoore,ca,us,circle,40.0,40 seconds,36.3,-119.78,2004-04-09,21:00:00
monticello,in,us,circle,60.0,1min.,40.75,-86.76,2004-04-09,21:00:00
ocala,fl,us,fireball,3.0,3 seconds,29.19,-82.14,2004-04-09,21:00:00
wabash,in,us,other,45.0,30-45sec.,40.8,-85.82,2004-04-09,21:00:00
fayetteville,nc,us,fireball,5.0,5 seconds,35.05,-78.88,2004-04-09,21:10:00
new orleans,la,us,light,20.0,20 seconds,29.95,-90.08,2004-04-09,21:10:00
ford city,pa,us,disk,15.0,15 seconds,40.77,-79.53,2004-04-09,21:15:00
ford city,pa,us,triangle,10.0,8-10 seconds,40.77,-79.53,2004-04-09,21:15:00
phoenix,az,us,triangle,30.0,30 sec,33.45,-112.07,2004-04-09,21:50:00
walton,in,us,oval,20.0,20 seconds,40.66,-86.24,2004-04-09,22:00:00
altoona,pa,us,chevron,15.0,12-15 seconds,40.52,-78.4,2004-04-09,22:10:00
owings mills,md,us,chevron,10.0,about 10 sec.,39.42,-76.78,2004-04-09,22:14:00
st. augustine,fl,us,disk,120.0,1-2 min,29.89,-81.31,2004-04-09,22:15:00
columbus,ga,us,oval,5.0,5 sec,32.46,-84.99,2004-04-09,22:30:00
osceola,mo,us,fireball,15.0,10 or 15 seconds,38.05,-93.7,2005-04-09,01:00:00
marshalltown,ia,us,circle,4.0,3-4 seconds,42.05,-92.91,2005-04-09,01:43:00
el paso (rural),il,us,fireball,5.0,5 seconds,40.74,-89.02,2005-04-09,02:10:00
amityville,ny,us,disk,60.0,1minute,40.68,-73.42,2005-04-09,08:39:00
el cajon,ca,us,circle,240.0,3-4 min,32.79,-116.96,2005-04-09,12:00:00
auburn hills,mi,us,other,180.0,3 minutes,42.69,-83.23,2005-04-09,13:00:00
sidney,tx,us,triangle,180.0,3 minutes,31.95,-98.74,2005-04-09,19:09:00
oak harbor,wa,us,formation,7.0,0:07,48.29,-122.64,2005-04-09,20:00:00
allston,ma,us,triangle,10.0,10 seconds,42.36,-71.13,2005-04-09,20:25:00
sidney,tx,us,triangle,180.0,3 mins,31.95,-98.74,2005-04-09,21:12:00
sidney,tx,us,triangle,180.0,3 min,31.95,-98.74,2005-04-09,21:12:00
sicklerville,nj,us,triangle,120.0,2 min,39.72,-74.97,2005-04-09,21:33:00
amesbury,ma,us,light,3600.0,60 mins+,42.86,-70.93,2005-04-09,21:40:00
orange,ct,us,oval,300.0,5 minutes,41.28,-73.03,2005-04-09,22:30:00
wasilla,ak,us,light,10.0,10 sec./,61.58,-149.44,2005-04-09,22:50:00
montreal (canada),qc,ca,formation,10.0,10 sec,45.5,-73.58,2006-04-09,10:50:00
dallas,tx,us,changing,360.0,5-6 minutes,32.78,-96.8,2006-04-09,13:30:00
philadelphia,pa,us,cigar,60.0,about a minute and a half,39.95,-75.16,2006-04-09,14:36:00
quapaw,ok,us,cigar,5.0,5 sec.,36.95,-94.79,2006-04-09,15:30:00
orland,ca,us,sphere,60.0,1 minute,39.75,-122.2,2006-04-09,16:35:00
orland,ca,us,sphere,60.0,1 minute,39.75,-122.2,2006-04-09,16:35:00
little rock,ar,us,light,120.0,1-2 min,34.75,-92.29,2006-04-09,21:00:00
mandeville,la,us,light,5.0,5 sec.,30.36,-90.07,2006-04-09,22:00:00
mariposa,ca,us,flash,1800.0,30min,37.48,-119.97,2007-04-09,01:15:00
detroit,mi,us,light,30.0,30 seconds,42.33,-83.05,2007-04-09,05:00:00
cross timbers,mo,us,oval,300.0,5 min.,38.02,-93.23,2007-04-09,09:40:00
north vancouver (canada),bc,ca,disk,300.0,5 minutes,49.32,-123.07,2007-04-09,13:30:00
spindale,nc,us,oval,120.0,2 minutes,35.36,-81.93,2007-04-09,14:20:00
knoxville,tn,us,disk,240.0,4 minutes,35.96,-83.92,2007-04-09,15:00:00
elmsford,ny,us,circle,2.0,2 seconds?,41.06,-73.82,2007-04-09,18:05:00
cottonwood,ca,us,light,420.0,7 minutes,40.39,-122.28,2007-04-09,21:00:00
charlotte,nc,us,oval,360.0,6 min,35.23,-80.84,2007-04-09,21:17:00
san rafael,ca,us,light,10.0,6-10 seconds,37.97,-122.53,2007-04-09,21:35:00
waukesha,wi,us,light,1200.0,20min.,43.01,-88.23,2007-04-09,23:00:00
fremont,ca,us,oval,1200.0,20 minutes,37.55,-121.99,2008-04-09,00:30:00
san diego,ca,us,other,720.0,12 minutes,32.72,-117.16,2008-04-09,11:03:00
leesburg,ga,us,light,20.0,20 seconds,31.73,-84.17,2008-04-09,21:45:00
mount vernon,wa,us,triangle,4.0,4 seconds,48.42,-122.33,2009-04-09,02:00:00
charlotte,nc,us,cylinder,360.0,about 6 minutes,35.23,-80.84,2009-04-09,08:12:00
charlotte,nc,us,cylinder,420.0,5-7 minutes,35.23,-80.84,2009-04-09,08:12:00
lake worth,fl,us,oval,120.0,2 minutes,26.62,-80.06,2009-04-09,20:13:00
calcutta,oh,us,circle,600.0,10 minutes,40.67,-80.58,2009-04-09,22:45:00
oakland,ca,us,triangle,6.0,4-6 seconds,37.8,-122.27,2010-04-09,01:14:00
evansville,in,us,light,300.0,5 minutes,37.97,-87.56,2010-04-09,05:05:00
independence,mo,us,light,20.0,20 secs,39.09,-94.42,2010-04-09,18:30:00
wenden,az,us,disk,60.0,1minute,33.82,-113.54,2010-04-09,20:35:00
yuma,az,us,circle,40.0,40 secs,32.73,-114.62,2010-04-09,21:00:00
indianapolis,in,us,triangle,60.0,1 minute driving past,39.77,-86.16,2010-04-09,21:30:00
san antonio,tx,us,triangle,30.0,25-30 sec.,29.42,-98.49,2010-04-09,23:15:00
annapolis,md,us,circle,600.0,10 minutes,38.98,-76.49,2011-04-09,00:15:00
fortuna,ca,us,light,345600.0,4 days,40.6,-124.16,2011-04-09,01:00:00
buffalo,ny,us,circle,15.0,15 seconds,42.89,-78.88,2011-04-09,01:30:00
coeur d&#39alene,id,us,other,30.0,30 sec,47.68,-116.78,2011-04-09,05:00:00
travelers rest,sc,us,sphere,420.0,5-7 minutes,34.97,-82.44,2011-04-09,05:30:00
brantford (canada),on,ca,sphere,240.0,4 minutes,43.13,-80.27,2011-04-09,12:00:00
orlando,fl,us,formation,600.0,10 minutes,28.54,-81.38,2011-04-09,18:45:00
hampton,va,us,circle,600.0,ten min,37.03,-76.35,2011-04-09,21:30:00
asbury park,nj,us,triangle,2700.0,45min,40.22,-74.01,2011-04-09,22:05:00
burlington (canada),on,ca,formation,180.0,3 minutes,43.32,-79.8,2011-04-09,22:28:00
east peoria,il,us,cigar,10.0,10 seconds,40.67,-89.58,2011-04-09,23:00:00
saunemin,il,us,circle,5.0,5 seconds,40.89,-88.41,2011-04-09,23:00:00
sparland,il,us,circle,120.0,few minutes,41.03,-89.44,2011-04-09,23:30:00
farmington,nm,us,triangle,900.0,10-15 minutes,36.73,-108.22,2011-04-09,23:55:00
ventura,ca,us,light,60.0,less than 1 minute,34.28,-119.29,2012-04-09,06:05:00
arbutus,md,us,light,180.0,2-3 mintues,39.25,-76.7,2012-04-09,09:00:00
san marcos,ca,us,circle,900.0,15:00,33.14,-117.17,2012-04-09,12:05:00
franklin,mi,us,flash,1.0,1 second,42.52,-83.31,2012-04-09,20:00:00
